[{"datasetid": "referentiel-gares-voyageurs", "recordid": "77637cc69ba9cb45c1798fd9dae55afe4bf20a5d", "fields": {"departement": "Oise", "commune": "Lavilletertre", "uic": "0087381202", "segment_drg": "c", "region": "Picardie", "nombre_plateformes": "1", "niveau_de_service": "1", "wgs_84": [49.2024666, 1.9206361], "intitule_gare": "Lavilletertre", "code_postal": "60240"}, "geometry": {"type": "Point", "coordinates": [1.9206361, 49.2024666]}, "record_timestamp": "2015-11-20T13:45:26+01:00"},{"datasetid": "referentiel-gares-voyageurs", "recordid": "54db67f0c24f78d779f63c93a2d0799295559f51", "fields": {"departement": "Hauts-de-Seine", "commune": "Asni\u00e8res-sur-Seine", "uic": "0087381137", "code_postal": "92600", "region": "\u00cele-de-France", "nombre_plateformes": "1", "segment_drg": "b", "wgs_84": [48.9058, 2.28324], "intitule_gare": "Asni\u00e8res-sur-Seine"}, "geometry": {"type": "Point", "coordinates": [2.28324, 48.9058]}, "record_timestamp": "2015-11-20T13:45:26+01:00"},{"datasetid": "referentiel-gares-voyageurs", "recordid": "483fff9e17b695879402a41a17f78483bb12ca26", "fields": {"departement": "Hauts-de-Seine", "commune": "Colombes", "uic": "0087381087", "code_postal": "92700", "region": "\u00cele-de-France", "nombre_plateformes": "1", "segment_drg": "b", "wgs_84": [48.92383, 2.25939], "intitule_gare": "Colombes"}, "geometry": {"type": "Point", "coordinates": [2.25939, 48.92383]}, "record_timestamp": "2015-11-20T13:45:26+01:00"},{"datasetid": "referentiel-gares-voyageurs", "recordid": "b129fa2f277da8044ad86375039b06210c6d0034", "fields": {"departement": "Paris", "commune": "Paris", "uic": "0087381038", "code_postal": "75016", "region": "\u00cele-de-France", "nombre_plateformes": "1", "segment_drg": "b", "wgs_84": [48.870971, 2.2756167], "intitule_gare": "Avenue Foch"}, "geometry": {"type": "Point", "coordinates": [2.2756167, 48.870971]}, "record_timestamp": "2015-11-20T13:45:26+01:00"},{"datasetid": "referentiel-gares-voyageurs", "recordid": "daceb7bc187b2bf3ce509c73411a676127ceab52", "fields": {"departement": "Haute-Garonne", "commune": "Colomiers", "uic": "0087353581", "segment_drg": "c", "region": "Midi-Pyr\u00e9n\u00e9es", "nombre_plateformes": "1", "niveau_de_service": "1", "wgs_84": [43.6024594, 1.3528032], "intitule_gare": "Les Ramassiers", "code_postal": "31000"}, "geometry": {"type": "Point", "coordinates": [1.3528032, 43.6024594]}, "record_timestamp": "2015-11-20T13:45:26+01:00"},{"datasetid": "referentiel-gares-voyageurs", "recordid": "46847cd46eb363d399cbcf2b299e110dce66b0f9", "fields": {"departement": "Nord", "commune": "Maurois", "uic": "0087345546", "segment_drg": "c", "region": "Nord-Pas-de-Calais", "nombre_plateformes": "1", "niveau_de_service": "1", "wgs_84": [50.0674506, 3.4562554], "intitule_gare": "Maurois", "code_postal": "59980"}, "geometry": {"type": "Point", "coordinates": [3.4562554, 50.0674506]}, "record_timestamp": "2015-11-20T13:45:26+01:00"},{"datasetid": "referentiel-gares-voyageurs", "recordid": "063018d23f634bf805b9bf75686a2cba5749ef66", "fields": {"departement": "Nord", "commune": "Brun\u00e9mont", "uic": "0087345439", "segment_drg": "c", "region": "Nord-Pas-de-Calais", "nombre_plateformes": "1", "niveau_de_service": "1", "wgs_84": [50.2783197, 3.1453509], "intitule_gare": "Brun\u00e9mont", "code_postal": "59151"}, "geometry": {"type": "Point", "coordinates": [3.1453509, 50.2783197]}, "record_timestamp": "2015-11-20T13:45:26+01:00"},{"datasetid": "referentiel-gares-voyageurs", "recordid": "f3096aa002fcda2e75e9a039e0f439818bbe867a", "fields": {"departement": "Nord", "commune": "Iwuy", "uic": "0087345397", "segment_drg": "c", "region": "Nord-Pas-de-Calais", "nombre_plateformes": "1", "niveau_de_service": "1", "wgs_84": [50.2255015, 3.3298634], "intitule_gare": "Iwuy", "code_postal": "59141"}, "geometry": {"type": "Point", "coordinates": [3.3298634, 50.2255015]}, "record_timestamp": "2015-11-20T13:45:26+01:00"},{"datasetid": "referentiel-gares-voyageurs", "recordid": "3204222d33dbae7f874c18be133b3cf19745183d", "fields": {"departement": "Pas-de-Calais", "commune": "Pont-\u00e0-Vendin", "uic": "0087345264", "segment_drg": "c", "region": "Nord-Pas-de-Calais", "nombre_plateformes": "1", "niveau_de_service": "1", "wgs_84": [50.4713812, 2.8751938], "intitule_gare": "Pont-\u00e0-Vendin", "code_postal": "62880"}, "geometry": {"type": "Point", "coordinates": [2.8751938, 50.4713812]}, "record_timestamp": "2015-11-20T13:45:26+01:00"},{"datasetid": "referentiel-gares-voyageurs", "recordid": "756f7e207bc2b4abd6954f2617eb78e5538d6ac7", "fields": {"departement": "Nord", "commune": "Ostricourt", "uic": "0087345249", "segment_drg": "b", "region": "Nord-Pas-de-Calais", "nombre_plateformes": "1", "niveau_de_service": "1", "wgs_84": [50.44542, 3.03244], "intitule_gare": "Ostricourt", "code_postal": "59162"}, "geometry": {"type": "Point", "coordinates": [3.03244, 50.44542]}, "record_timestamp": "2015-11-20T13:45:26+01:00"},{"datasetid": "referentiel-gares-voyageurs", "recordid": "0200be49548a15e3c282631e44022b5312a8805b", "fields": {"departement": "Pas-de-Calais", "commune": "H\u00e9nin-Beaumont", "uic": "0087345157", "segment_drg": "b", "region": "Nord-Pas-de-Calais", "nombre_plateformes": "1", "niveau_de_service": "1", "wgs_84": [50.41706, 2.95211], "intitule_gare": "H\u00e9nin-Beaumont", "code_postal": "62110"}, "geometry": {"type": "Point", "coordinates": [2.95211, 50.41706]}, "record_timestamp": "2015-11-20T13:45:26+01:00"},{"datasetid": "referentiel-gares-voyageurs", "recordid": "a4ef20710e1976ae1a825943fbccf18b3bfff56f", "fields": {"departement": "Pas-de-Calais", "commune": "Loos-en-Gohelle", "uic": "0087345033", "segment_drg": "c", "region": "Nord-Pas-de-Calais", "nombre_plateformes": "1", "niveau_de_service": "1", "wgs_84": [50.4378798, 2.7933955], "intitule_gare": "Loos-en-Gohelle", "code_postal": "62750"}, "geometry": {"type": "Point", "coordinates": [2.7933955, 50.4378798]}, "record_timestamp": "2015-11-20T13:45:26+01:00"},{"datasetid": "referentiel-gares-voyageurs", "recordid": "b2bd710fbebb349df60947c1715a133fe19db359", "fields": {"departement": "Pas-de-Calais", "commune": "Lens", "uic": "0087345025", "segment_drg": "a", "region": "Nord-Pas-de-Calais", "nombre_plateformes": "1", "niveau_de_service": "2", "wgs_84": [50.426818, 2.828254], "intitule_gare": "Lens", "code_postal": "62300"}, "geometry": {"type": "Point", "coordinates": [2.828254, 50.426818]}, "record_timestamp": "2015-11-20T13:45:26+01:00"},{"datasetid": "referentiel-gares-voyageurs", "recordid": "37244296bce8a407146929c6b924ef7687956c23", "fields": {"departement": "Nord", "commune": "Lourches", "uic": "0087343475", "segment_drg": "c", "region": "Nord-Pas-de-Calais", "nombre_plateformes": "1", "niveau_de_service": "1", "wgs_84": [50.3102834, 3.3434016], "intitule_gare": "Lourches", "code_postal": "59172"}, "geometry": {"type": "Point", "coordinates": [3.3434016, 50.3102834]}, "record_timestamp": "2015-11-20T13:45:26+01:00"},{"datasetid": "referentiel-gares-voyageurs", "recordid": "5eed49a44c8b3656657ee3b38d5ada8ca3795b98", "fields": {"departement": "Nord", "commune": "Denain", "uic": "0087343459", "segment_drg": "c", "region": "Nord-Pas-de-Calais", "nombre_plateformes": "1", "niveau_de_service": "1", "wgs_84": [50.3345415, 3.388699], "intitule_gare": "Denain", "code_postal": "59220"}, "geometry": {"type": "Point", "coordinates": [3.388699, 50.3345415]}, "record_timestamp": "2015-11-20T13:45:26+01:00"},{"datasetid": "referentiel-gares-voyageurs", "recordid": "b578b415d5a6e9a97e818c65280836d3fa01514b", "fields": {"departement": "Nord", "commune": "Saint-Amand-les-Eaux", "uic": "0087343103", "segment_drg": "b", "region": "Nord-Pas-de-Calais", "nombre_plateformes": "1", "niveau_de_service": "1", "wgs_84": [50.44331, 3.41952], "intitule_gare": "Saint-Amand-les-Eaux", "code_postal": "59230"}, "geometry": {"type": "Point", "coordinates": [3.41952, 50.44331]}, "record_timestamp": "2015-11-20T13:45:26+01:00"},{"datasetid": "referentiel-gares-voyageurs", "recordid": "d42f63d6775d1fc8e3a57e6ec55fa2efde4551a9", "fields": {"departement": "Pas-de-Calais", "commune": "Vimy", "uic": "0087342576", "segment_drg": "c", "region": "Nord-Pas-de-Calais", "nombre_plateformes": "1", "niveau_de_service": "1", "wgs_84": [50.3732316, 2.8229549], "intitule_gare": "Vimy", "code_postal": "62580"}, "geometry": {"type": "Point", "coordinates": [2.8229549, 50.3732316]}, "record_timestamp": "2015-11-20T13:45:26+01:00"},{"datasetid": "referentiel-gares-voyageurs", "recordid": "581e1c8d0dcfe3fb6b9a014e36c698d3415dd993", "fields": {"departement": "Pas-de-Calais", "commune": "Marles-les-Mines", "uic": "0087342535", "segment_drg": "c", "region": "Nord-Pas-de-Calais", "nombre_plateformes": "1", "niveau_de_service": "1", "wgs_84": [50.5050115, 2.5171137], "intitule_gare": "Vis \u00e0 Marles", "code_postal": "62156"}, "geometry": {"type": "Point", "coordinates": [2.5171137, 50.5050115]}, "record_timestamp": "2015-11-20T13:45:26+01:00"},{"datasetid": "referentiel-gares-voyageurs", "recordid": "5c4d525d0774d88dac9b6b6e86d68fb894dd5c5e", "fields": {"departement": "Nord", "commune": "Bass\u00e9e", "uic": "0087342436", "segment_drg": "b", "region": "Nord-Pas-de-Calais", "nombre_plateformes": "1", "niveau_de_service": "1", "wgs_84": [50.52799, 2.80482], "intitule_gare": "La Bass\u00e9e", "code_postal": "59480"}, "geometry": {"type": "Point", "coordinates": [2.80482, 50.52799]}, "record_timestamp": "2015-11-20T13:45:26+01:00"},{"datasetid": "referentiel-gares-voyageurs", "recordid": "543c4f804881ba0842ee02d6d1fa8ab0f974ab6c", "fields": {"departement": "Nord", "commune": "Thiennes", "uic": "0087342287", "segment_drg": "c", "region": "Nord-Pas-de-Calais", "nombre_plateformes": "1", "niveau_de_service": "1", "wgs_84": [50.6523561, 2.4729218], "intitule_gare": "Thiennes", "code_postal": "59189"}, "geometry": {"type": "Point", "coordinates": [2.4729218, 50.6523561]}, "record_timestamp": "2015-11-20T13:45:26+01:00"},{"datasetid": "referentiel-gares-voyageurs", "recordid": "6a594bc25f46d8830a122b4d86596c391bdac55d", "fields": {"departement": "Pas-de-Calais", "commune": "Aubigny-en-Artois", "uic": "0087342246", "segment_drg": "c", "region": "Nord-Pas-de-Calais", "nombre_plateformes": "1", "niveau_de_service": "1", "wgs_84": [50.35297, 2.5928045], "intitule_gare": "Aubigny-en-Artois", "code_postal": "62690"}, "geometry": {"type": "Point", "coordinates": [2.5928045, 50.35297]}, "record_timestamp": "2015-11-20T13:45:26+01:00"},{"datasetid": "referentiel-gares-voyageurs", "recordid": "7812645d0e292e708238d15ef4c095dea9651c61", "fields": {"departement": "Pas-de-Calais", "commune": "Bully-les-Mines", "uic": "0087342105", "segment_drg": "b", "region": "Nord-Pas-de-Calais", "nombre_plateformes": "1", "niveau_de_service": "1", "wgs_84": [50.44843, 2.73317], "intitule_gare": "Bully - Grenay", "code_postal": "62160"}, "geometry": {"type": "Point", "coordinates": [2.73317, 50.44843]}, "record_timestamp": "2015-11-20T13:45:26+01:00"},{"datasetid": "referentiel-gares-voyageurs", "recordid": "d59ad3955477dd98084a91e7295d563cd5d67f07", "fields": {"departement": "Pas-de-Calais", "commune": "Boisleux-au-Mont", "uic": "0087342071", "segment_drg": "c", "region": "Nord-Pas-de-Calais", "nombre_plateformes": "1", "niveau_de_service": "1", "wgs_84": [50.2104665, 2.771855], "intitule_gare": "Boisleux", "code_postal": "62175"}, "geometry": {"type": "Point", "coordinates": [2.771855, 50.2104665]}, "record_timestamp": "2015-11-20T13:45:26+01:00"},{"datasetid": "referentiel-gares-voyageurs", "recordid": "846ec2e607d22cdd1f9171666ca8bc389e5e1de5", "fields": {"departement": "Pas-de-Calais", "commune": "Courcelles-le-Comte", "uic": "0087342063", "segment_drg": "c", "region": "Nord-Pas-de-Calais", "nombre_plateformes": "1", "niveau_de_service": "1", "wgs_84": [50.1694124, 2.7880351], "intitule_gare": "Courcelles-le-Comte", "code_postal": "62121"}, "geometry": {"type": "Point", "coordinates": [2.7880351, 50.1694124]}, "record_timestamp": "2015-11-20T13:45:26+01:00"},{"datasetid": "referentiel-gares-voyageurs", "recordid": "6d0c674c17f044bcfef8380a175fd1ef0bc1d5be", "fields": {"departement": "Somme", "commune": "Miraumont", "uic": "0087342030", "segment_drg": "c", "region": "Picardie", "nombre_plateformes": "1", "niveau_de_service": "1", "wgs_84": [50.0958521, 2.7344755], "intitule_gare": "Miraumont", "code_postal": "80300"}, "geometry": {"type": "Point", "coordinates": [2.7344755, 50.0958521]}, "record_timestamp": "2015-11-20T13:45:26+01:00"},{"datasetid": "referentiel-gares-voyageurs", "recordid": "2d52d8ea59c867f85e15b9c78a18ef8474ba6ef2", "fields": {"departement": "Pas-de-Calais", "commune": "Arras", "uic": "0087342014", "segment_drg": "a", "region": "Nord-Pas-de-Calais", "nombre_plateformes": "1", "niveau_de_service": "2", "wgs_84": [50.286673, 2.781942], "intitule_gare": "Arras", "code_postal": "62000"}, "geometry": {"type": "Point", "coordinates": [2.781942, 50.286673]}, "record_timestamp": "2015-11-20T13:45:26+01:00"},{"datasetid": "referentiel-gares-voyageurs", "recordid": "2ef869fd85dac6aee5ee82950ddaab4e6e03ed82", "fields": {"departement": "Aisne", "commune": "Hirson", "uic": "0087324335", "segment_drg": "c", "region": "Picardie", "nombre_plateformes": "1", "niveau_de_service": "1", "wgs_84": [49.9288321, 4.0861491], "intitule_gare": "Hirson \u00c9coles", "code_postal": "02500"}, "geometry": {"type": "Point", "coordinates": [4.0861491, 49.9288321]}, "record_timestamp": "2015-11-20T13:45:26+01:00"},{"datasetid": "referentiel-gares-voyageurs", "recordid": "698c058032d624f9ad14771fc5eba00c303f8666", "fields": {"departement": "Vaucluse", "commune": "Avignon", "uic": "0087318964 0087981902", "segment_drg": "a c", "region": "Provence-Alpes-C\u00f4te d'Azur", "nombre_plateformes": "2", "niveau_de_service": "3", "wgs_84": [43.921586, 4.786079], "intitule_gare": "Avignon TGV", "code_postal": "84000"}, "geometry": {"type": "Point", "coordinates": [4.786079, 43.921586]}, "record_timestamp": "2015-11-20T13:45:26+01:00"},{"datasetid": "referentiel-gares-voyageurs", "recordid": "93c3e64ce2dd7ffc44b6851ed1c9de741ad47d53", "fields": {"departement": "Pas-de-Calais", "commune": "Rinxent", "uic": "0087317339", "segment_drg": "b", "region": "Nord-Pas-de-Calais", "nombre_plateformes": "1", "niveau_de_service": "1", "wgs_84": [50.8056635, 1.72988], "intitule_gare": "Marquise - Rinxent", "code_postal": "62250"}, "geometry": {"type": "Point", "coordinates": [1.72988, 50.8056635]}, "record_timestamp": "2015-11-20T13:45:26+01:00"},{"datasetid": "referentiel-gares-voyageurs", "recordid": "01c409ad78e1625a4df6048e8e63063be42aed2d", "fields": {"departement": "Pas-de-Calais", "commune": "Beaurainville", "uic": "0087317198", "segment_drg": "c", "region": "Nord-Pas-de-Calais", "nombre_plateformes": "1", "niveau_de_service": "1", "wgs_84": [50.422891, 1.895345], "intitule_gare": "Beaurainville", "code_postal": "62990"}, "geometry": {"type": "Point", "coordinates": [1.895345, 50.422891]}, "record_timestamp": "2015-11-20T13:45:26+01:00"},{"datasetid": "referentiel-gares-voyageurs", "recordid": "98a986ae697a53ba2c59baf476aa726db668685f", "fields": {"departement": "Pas-de-Calais", "commune": "Montreuil", "uic": "0087317164", "segment_drg": "c", "region": "Nord-Pas-de-Calais", "nombre_plateformes": "1", "niveau_de_service": "1", "wgs_84": [50.4661948, 1.7691662], "intitule_gare": "Montreuil sur Mer", "code_postal": "62170"}, "geometry": {"type": "Point", "coordinates": [1.7691662, 50.4661948]}, "record_timestamp": "2015-11-20T13:45:26+01:00"},{"datasetid": "referentiel-gares-voyageurs", "recordid": "dfec964870e10fb070e21cf1960a52e8357d9c76", "fields": {"departement": "Pas-de-Calais", "commune": "Camiers", "uic": "0087317081", "segment_drg": "c", "region": "Nord-Pas-de-Calais", "nombre_plateformes": "1", "niveau_de_service": "1", "wgs_84": [50.5759062, 1.614825], "intitule_gare": "Dannes - Camiers", "code_postal": "62187"}, "geometry": {"type": "Point", "coordinates": [1.614825, 50.5759062]}, "record_timestamp": "2015-11-20T13:45:26+01:00"},{"datasetid": "referentiel-gares-voyageurs", "recordid": "4378e79a1818da8e4e64815908cdf69456970bb2", "fields": {"departement": "Pas-de-Calais", "commune": "\u00c9taples", "uic": "0087317065", "segment_drg": "b", "region": "Nord-Pas-de-Calais", "nombre_plateformes": "1", "niveau_de_service": "2", "wgs_84": [50.51686, 1.64231], "intitule_gare": "\u00c9taples - Le Touquet", "code_postal": "62630"}, "geometry": {"type": "Point", "coordinates": [1.64231, 50.51686]}, "record_timestamp": "2015-11-20T13:45:26+01:00"},{"datasetid": "referentiel-gares-voyageurs", "recordid": "94008305ffc19efa4115cef7be7f8cc2e62814b5", "fields": {"departement": "Somme", "commune": "Feuqui\u00e8res-en-Vimeu", "uic": "0087316752", "segment_drg": "c", "region": "Picardie", "nombre_plateformes": "1", "niveau_de_service": "1", "wgs_84": [50.0648443, 1.605574], "intitule_gare": "Feuquerolles", "code_postal": "80190"}, "geometry": {"type": "Point", "coordinates": [1.605574, 50.0648443]}, "record_timestamp": "2015-11-20T13:45:26+01:00"},{"datasetid": "referentiel-gares-voyageurs", "recordid": "aaa215392b0f2e201fb79b612a02189d52453f9a", "fields": {"departement": "Somme", "commune": "Ch\u00e9py", "uic": "0087316745", "segment_drg": "c", "region": "Picardie", "nombre_plateformes": "1", "niveau_de_service": "1", "wgs_84": [50.0826021, 1.6574207], "intitule_gare": "Acheux - Franleu", "code_postal": "80560"}, "geometry": {"type": "Point", "coordinates": [1.6574207, 50.0826021]}, "record_timestamp": "2015-11-20T13:45:26+01:00"},{"datasetid": "referentiel-gares-voyageurs", "recordid": "4eecff447bb5a4084d219e2dddc3b4ba460f233c", "fields": {"departement": "Pas-de-Calais", "commune": "Pihen-l\u00e8s-Gu\u00eenes", "uic": "0087316679", "segment_drg": "c", "region": "Nord-Pas-de-Calais", "nombre_plateformes": "1", "niveau_de_service": "1", "wgs_84": [50.8727855, 1.7845632], "intitule_gare": "Pihen", "code_postal": "62340"}, "geometry": {"type": "Point", "coordinates": [1.7845632, 50.8727855]}, "record_timestamp": "2015-11-20T13:45:26+01:00"},{"datasetid": "referentiel-gares-voyageurs", "recordid": "5b7b930139f009fb73989db473a34358e46db316", "fields": {"departement": "Somme", "commune": "Dommartin", "uic": "0087316109", "segment_drg": "c", "region": "Picardie", "nombre_plateformes": "1", "niveau_de_service": "1", "wgs_84": [49.7996523, 2.3926625], "intitule_gare": "Dommartin - Remiencourt", "code_postal": "80440"}, "geometry": {"type": "Point", "coordinates": [2.3926625, 49.7996523]}, "record_timestamp": "2015-11-20T13:45:26+01:00"},{"datasetid": "referentiel-gares-voyageurs", "recordid": "2cdcd14df349c8cf2c86810cf4ad1488dcf396ed", "fields": {"departement": "Seine-Maritime", "commune": "Blangy-sur-Bresle", "uic": "0087313809", "segment_drg": "c", "region": "Haute-Normandie", "nombre_plateformes": "1", "niveau_de_service": "1", "wgs_84": [49.9326071, 1.6259074], "intitule_gare": "Blangy-sur-Bresle", "code_postal": "76340"}, "geometry": {"type": "Point", "coordinates": [1.6259074, 49.9326071]}, "record_timestamp": "2015-11-20T13:45:26+01:00"},{"datasetid": "referentiel-gares-voyageurs", "recordid": "1277f4e69ed821dab887e554645343cea6680a07", "fields": {"departement": "Seine-Maritime", "commune": "Aumale", "uic": "0087313767", "segment_drg": "c", "region": "Haute-Normandie", "nombre_plateformes": "1", "niveau_de_service": "1", "wgs_84": [49.7650371, 1.7560425], "intitule_gare": "Aumale", "code_postal": "76390"}, "geometry": {"type": "Point", "coordinates": [1.7560425, 49.7650371]}, "record_timestamp": "2015-11-20T13:45:26+01:00"},{"datasetid": "referentiel-gares-voyageurs", "recordid": "d1858aa0c7c6e224d43a5ab45cfc2fd7edd63be2", "fields": {"departement": "Oise", "commune": "Grandvilliers", "uic": "0087313734", "segment_drg": "c", "region": "Picardie", "nombre_plateformes": "1", "niveau_de_service": "1", "wgs_84": [49.6593779, 1.9384836], "intitule_gare": "Grandvilliers", "code_postal": "60210"}, "geometry": {"type": "Point", "coordinates": [1.9384836, 49.6593779]}, "record_timestamp": "2015-11-20T13:45:26+01:00"},{"datasetid": "referentiel-gares-voyageurs", "recordid": "4606d2bfe61b808c91212760b53be0f4db30b522", "fields": {"departement": "Oise", "commune": "Saint-Sulpice", "uic": "0087313684", "segment_drg": "b", "region": "Picardie", "nombre_plateformes": "1", "niveau_de_service": "1", "wgs_84": [49.3473824, 2.1164133], "intitule_gare": "Saint-Sulpice - Auteuil", "code_postal": "60430"}, "geometry": {"type": "Point", "coordinates": [2.1164133, 49.3473824]}, "record_timestamp": "2015-11-20T13:45:26+01:00"},{"datasetid": "referentiel-gares-voyageurs", "recordid": "9d94da5440240dff0f48146f0359a507f4a52742", "fields": {"departement": "Oise", "commune": "Balagny-sur-Th\u00e9rain", "uic": "0087313569", "segment_drg": "c", "region": "Picardie", "nombre_plateformes": "1", "niveau_de_service": "1", "wgs_84": [49.2942448, 2.3441977], "intitule_gare": "Balagny Saint-\u00c9pin", "code_postal": "60250"}, "geometry": {"type": "Point", "coordinates": [2.3441977, 49.2942448]}, "record_timestamp": "2015-11-20T13:45:26+01:00"},{"datasetid": "referentiel-gares-voyageurs", "recordid": "ffefb76d47a481429aa7228793ad89cc3a39e290", "fields": {"departement": "Oise", "commune": "Remy", "uic": "0087313403", "segment_drg": "c", "region": "Picardie", "nombre_plateformes": "1", "niveau_de_service": "1", "wgs_84": [49.4331452, 2.7059434], "intitule_gare": "R\u00e9my", "code_postal": "60190"}, "geometry": {"type": "Point", "coordinates": [2.7059434, 49.4331452]}, "record_timestamp": "2015-11-20T13:45:26+01:00"},{"datasetid": "referentiel-gares-voyageurs", "recordid": "d9cf920661dd0ff585edaf50ec40b0d4061e6e11", "fields": {"departement": "Somme", "commune": "Poix-de-Picardie", "uic": "0087313395", "segment_drg": "c", "region": "Picardie", "nombre_plateformes": "1", "niveau_de_service": "1", "wgs_84": [49.7778561, 1.9897767], "intitule_gare": "Poix-de-Picardie", "code_postal": "80290"}, "geometry": {"type": "Point", "coordinates": [1.9897767, 49.7778561]}, "record_timestamp": "2015-11-20T13:45:26+01:00"},{"datasetid": "referentiel-gares-voyageurs", "recordid": "fcbe610aeea908ee063ad37d26c2c6c1d833288c", "fields": {"departement": "Oise", "commune": "Clermont", "uic": "0087313304", "segment_drg": "b", "region": "Picardie", "nombre_plateformes": "1", "niveau_de_service": "2", "wgs_84": [49.38531, 2.41767], "intitule_gare": "Clermont de l'Oise", "code_postal": "60600"}, "geometry": {"type": "Point", "coordinates": [2.41767, 49.38531]}, "record_timestamp": "2015-11-20T13:45:26+01:00"},{"datasetid": "referentiel-gares-voyageurs", "recordid": "92eca82f97801b84538fe22e1a12af1630c24ded", "fields": {"departement": "Oise", "commune": "Breteuil", "uic": "0087313247", "segment_drg": "c", "region": "Picardie", "nombre_plateformes": "1", "niveau_de_service": "1", "wgs_84": [49.626389, 2.3845164], "intitule_gare": "Breteuil", "code_postal": "60120"}, "geometry": {"type": "Point", "coordinates": [2.3845164, 49.626389]}, "record_timestamp": "2015-11-20T13:45:26+01:00"},{"datasetid": "referentiel-gares-voyageurs", "recordid": "d17940954905f4f0b524eb3b20ff6b4ea8c61edd", "fields": {"departement": "Somme", "commune": "Ailly-sur-Noye", "uic": "0087313221", "segment_drg": "b", "region": "Picardie", "nombre_plateformes": "1", "niveau_de_service": "1", "wgs_84": [49.75448, 2.36419], "intitule_gare": "Ailly-sur-Noye", "code_postal": "80250"}, "geometry": {"type": "Point", "coordinates": [2.36419, 49.75448]}, "record_timestamp": "2015-11-20T13:45:26+01:00"},{"datasetid": "referentiel-gares-voyageurs", "recordid": "3ff225710ba0fa83962a17290884c91e20fc05fb", "fields": {"departement": "Somme", "commune": "Pont-Remy", "uic": "0087313130", "segment_drg": "c", "region": "Picardie", "nombre_plateformes": "1", "niveau_de_service": "1", "wgs_84": [50.0472341, 1.8988404], "intitule_gare": "Pont-Remy", "code_postal": "80580"}, "geometry": {"type": "Point", "coordinates": [1.8988404, 50.0472341]}, "record_timestamp": "2015-11-20T13:45:26+01:00"},{"datasetid": "referentiel-gares-voyageurs", "recordid": "bc3405aa1ba2d0a140400509b63e43c62ec3dd08", "fields": {"departement": "Somme", "commune": "Longpr\u00e9-les-Corps-Saints", "uic": "0087313122", "segment_drg": "b", "region": "Picardie", "nombre_plateformes": "1", "niveau_de_service": "1", "wgs_84": [50.01128, 2.00277], "intitule_gare": "Longpr\u00e9-les-Corps-Saints", "code_postal": "80510"}, "geometry": {"type": "Point", "coordinates": [2.00277, 50.01128]}, "record_timestamp": "2015-11-20T13:45:26+01:00"},{"datasetid": "referentiel-gares-voyageurs", "recordid": "788d82ccb69cb01734ca5bc32e234c1c63752c05", "fields": {"departement": "Somme", "commune": "Corbie", "uic": "0087313056", "segment_drg": "b", "region": "Picardie", "nombre_plateformes": "1", "niveau_de_service": "1", "wgs_84": [49.9116183, 2.4996846], "intitule_gare": "Corbie", "code_postal": "80800"}, "geometry": {"type": "Point", "coordinates": [2.4996846, 49.9116183]}, "record_timestamp": "2015-11-20T13:45:26+01:00"},{"datasetid": "referentiel-gares-voyageurs", "recordid": "9a39b5af18b29022aa474f5b78e3daa986594c99", "fields": {"departement": "Nord", "commune": "Saint-Hilaire-sur-Helpe", "uic": "0087297531", "segment_drg": "c", "region": "Nord-Pas-de-Calais", "nombre_plateformes": "1", "niveau_de_service": "1", "wgs_84": [50.1319709, 3.9140099], "intitule_gare": "Saint-Hilaire", "code_postal": "59292"}, "geometry": {"type": "Point", "coordinates": [3.9140099, 50.1319709]}, "record_timestamp": "2015-11-20T13:45:26+01:00"},{"datasetid": "referentiel-gares-voyageurs", "recordid": "400a7d247a9727f0bd03d3540c3d48abf83f2233", "fields": {"departement": "Aisne", "commune": "Barenton-Bugny", "uic": "0087297291", "segment_drg": "c", "region": "Picardie", "nombre_plateformes": "1", "niveau_de_service": "1", "wgs_84": [49.6307907, 3.6559914], "intitule_gare": "Barenton-Bugny", "code_postal": "02000"}, "geometry": {"type": "Point", "coordinates": [3.6559914, 49.6307907]}, "record_timestamp": "2015-11-20T13:45:26+01:00"},{"datasetid": "referentiel-gares-voyageurs", "recordid": "098283a9cb91925b8b2cb22c79df1fccf5ee9660", "fields": {"departement": "Aisne", "commune": "Verneuil-sur-Serre", "uic": "0087297119", "segment_drg": "c", "region": "Picardie", "nombre_plateformes": "1", "niveau_de_service": "1", "wgs_84": [49.6486805, 3.6677085], "intitule_gare": "Verneuil-sur-Serre", "code_postal": "02000"}, "geometry": {"type": "Point", "coordinates": [3.6677085, 49.6486805]}, "record_timestamp": "2015-11-20T13:45:26+01:00"},{"datasetid": "referentiel-gares-voyageurs", "recordid": "d75cff7983a1b74a76cb1a9406adbc2140e041d1", "fields": {"departement": "Aisne", "commune": "Viry-Noureuil", "uic": "0087297051", "segment_drg": "c", "region": "Picardie", "nombre_plateformes": "1", "niveau_de_service": "1", "wgs_84": [49.6274493, 3.2503611], "intitule_gare": "Viry-Noureuil", "code_postal": "02300"}, "geometry": {"type": "Point", "coordinates": [3.2503611, 49.6274493]}, "record_timestamp": "2015-11-20T13:45:26+01:00"},{"datasetid": "referentiel-gares-voyageurs", "recordid": "840a96459100d0508d5df0f743016c16017873bf", "fields": {"departement": "Aisne", "commune": "Flavy-le-Martel", "uic": "0087296871", "segment_drg": "c", "region": "Picardie", "nombre_plateformes": "1", "niveau_de_service": "1", "wgs_84": [49.7187375, 3.1905076], "intitule_gare": "Flavy-le-Martel", "code_postal": "02520"}, "geometry": {"type": "Point", "coordinates": [3.1905076, 49.7187375]}, "record_timestamp": "2015-11-20T13:45:26+01:00"},{"datasetid": "referentiel-gares-voyageurs", "recordid": "5d1b3153dcce33e3325d28c62c73acd3d2cb2644", "fields": {"departement": "Aisne", "commune": "Versigny", "uic": "0087296608", "segment_drg": "c", "region": "Picardie", "nombre_plateformes": "1", "niveau_de_service": "1", "wgs_84": [49.6574494, 3.4335692], "intitule_gare": "Versigny", "code_postal": "02800"}, "geometry": {"type": "Point", "coordinates": [3.4335692, 49.6574494]}, "record_timestamp": "2015-11-20T13:45:26+01:00"},{"datasetid": "referentiel-gares-voyageurs", "recordid": "1cfd46089fe13f67bc30ef6f34dc16cff16c20fd", "fields": {"departement": "Aisne", "commune": "Mennessis", "uic": "0087296434", "segment_drg": "c", "region": "Picardie", "nombre_plateformes": "1", "niveau_de_service": "1", "wgs_84": [49.6915989, 3.2711145], "intitule_gare": "Mennessis", "code_postal": "02700"}, "geometry": {"type": "Point", "coordinates": [3.2711145, 49.6915989]}, "record_timestamp": "2015-11-20T13:45:26+01:00"},{"datasetid": "referentiel-gares-voyageurs", "recordid": "2973e98528683fbac00d2d77fc582867c85f9049", "fields": {"departement": "Aisne", "commune": "Fresnoy-le-Grand", "uic": "0087296293", "segment_drg": "c", "region": "Picardie", "nombre_plateformes": "1", "niveau_de_service": "1", "wgs_84": [49.9501964, 3.43268], "intitule_gare": "Fresnoy-le-Grand", "code_postal": "02230"}, "geometry": {"type": "Point", "coordinates": [3.43268, 49.9501964]}, "record_timestamp": "2015-11-20T13:45:26+01:00"},{"datasetid": "referentiel-gares-voyageurs", "recordid": "05086b8bdee4c097d60893ca9297596e7da276e3", "fields": {"departement": "Aisne", "commune": "Vervins", "uic": "0087296129", "segment_drg": "c", "region": "Picardie", "nombre_plateformes": "1", "niveau_de_service": "1", "wgs_84": [49.8299236, 3.8936313], "intitule_gare": "Vervins", "code_postal": "02140"}, "geometry": {"type": "Point", "coordinates": [3.8936313, 49.8299236]}, "record_timestamp": "2015-11-20T13:45:26+01:00"},{"datasetid": "referentiel-gares-voyageurs", "recordid": "b86f5dfea5235537dac0fe35f7b1e5525b0172a1", "fields": {"departement": "Aisne", "commune": "Saint-Quentin", "uic": "0087296004", "segment_drg": "b", "region": "Picardie", "nombre_plateformes": "1", "niveau_de_service": "2", "wgs_84": [49.8400482, 3.2970089], "intitule_gare": "Saint-Quentin", "code_postal": "02100"}, "geometry": {"type": "Point", "coordinates": [3.2970089, 49.8400482]}, "record_timestamp": "2015-11-20T13:45:26+01:00"},{"datasetid": "referentiel-gares-voyageurs", "recordid": "dd0fb5adc13a7de72a48677ff9c2b1699d72af02", "fields": {"departement": "Nord", "commune": "Quesnoy", "uic": "0087295857", "segment_drg": "b", "region": "Nord-Pas-de-Calais", "nombre_plateformes": "1", "niveau_de_service": "1", "wgs_84": [50.25021, 3.64552], "intitule_gare": "Le Quesnoy", "code_postal": "59530"}, "geometry": {"type": "Point", "coordinates": [3.64552, 50.25021]}, "record_timestamp": "2015-11-20T13:45:26+01:00"},{"datasetid": "referentiel-gares-voyageurs", "recordid": "54dd01afaf044617ebdae2b0e4544498075ab2e1", "fields": {"departement": "Nord", "commune": "Leval", "uic": "0087295790", "segment_drg": "c", "region": "Nord-Pas-de-Calais", "nombre_plateformes": "1", "niveau_de_service": "1", "wgs_84": [50.1845311, 3.8366811], "intitule_gare": "Leval", "code_postal": "59620"}, "geometry": {"type": "Point", "coordinates": [3.8366811, 50.1845311]}, "record_timestamp": "2015-11-20T13:45:26+01:00"},{"datasetid": "referentiel-gares-voyageurs", "recordid": "a9c31d32e3e76923d72cdeaae4411e99146cf0c7", "fields": {"departement": "Nord", "commune": "Avesnelles", "uic": "0087295725", "segment_drg": "c", "region": "Nord-Pas-de-Calais", "nombre_plateformes": "1", "niveau_de_service": "1", "wgs_84": [50.1185513, 3.9485876], "intitule_gare": "Avesnelles", "code_postal": "59440"}, "geometry": {"type": "Point", "coordinates": [3.9485876, 50.1185513]}, "record_timestamp": "2015-11-20T13:45:26+01:00"},{"datasetid": "referentiel-gares-voyageurs", "recordid": "4cc407b95f2beb6e0b8c1f08f43416a4d937d98c", "fields": {"departement": "Nord", "commune": "Fourmies", "uic": "0087295048", "segment_drg": "b", "region": "Nord-Pas-de-Calais", "nombre_plateformes": "1", "niveau_de_service": "1", "wgs_84": [50.01541, 4.05357], "intitule_gare": "Fourmies", "code_postal": "59610"}, "geometry": {"type": "Point", "coordinates": [4.05357, 50.01541]}, "record_timestamp": "2015-11-20T13:45:26+01:00"},{"datasetid": "referentiel-gares-voyageurs", "recordid": "25e6a7f6d0c2e65eb7b01059edb199fb0cafcb0e", "fields": {"departement": "Nord", "commune": "Jeumont", "uic": "0087295014", "segment_drg": "b", "region": "Nord-Pas-de-Calais", "nombre_plateformes": "1", "niveau_de_service": "1", "wgs_84": [50.29606, 4.08645], "intitule_gare": "Jeumont", "code_postal": "59460"}, "geometry": {"type": "Point", "coordinates": [4.08645, 50.29606]}, "record_timestamp": "2015-11-20T13:45:26+01:00"},{"datasetid": "referentiel-gares-voyageurs", "recordid": "81058f6e90880f62eb72961d4d5698a4a00a149b", "fields": {"departement": "Nord", "commune": "Anstaing", "uic": "0087287219", "segment_drg": "c", "region": "Nord-Pas-de-Calais", "nombre_plateformes": "1", "niveau_de_service": "1", "wgs_84": [50.6040201, 3.1933039], "intitule_gare": "Anstaing", "code_postal": "59152"}, "geometry": {"type": "Point", "coordinates": [3.1933039, 50.6040201]}, "record_timestamp": "2015-11-20T13:45:26+01:00"},{"datasetid": "referentiel-gares-voyageurs", "recordid": "3762fd05974226d96395b4530d7afd5d2cfe6679", "fields": {"departement": "Nord", "commune": "Comines", "uic": "0087287193", "segment_drg": "c", "region": "Nord-Pas-de-Calais", "nombre_plateformes": "1", "niveau_de_service": "1", "wgs_84": [50.7403764, 3.0092045], "intitule_gare": "Sainte-Marguerite", "code_postal": "59660"}, "geometry": {"type": "Point", "coordinates": [3.0092045, 50.7403764]}, "record_timestamp": "2015-11-20T13:45:26+01:00"},{"datasetid": "referentiel-gares-voyageurs", "recordid": "5492d6b73fb2e47d4a1e8b5dd4068a7ddb9b6122", "fields": {"departement": "Nord", "commune": "Marquette-lez-Lille", "uic": "0087287169", "segment_drg": "c", "region": "Nord-Pas-de-Calais", "nombre_plateformes": "1", "niveau_de_service": "1", "wgs_84": [50.6724025, 3.0510262], "intitule_gare": "Marquette", "code_postal": "59252"}, "geometry": {"type": "Point", "coordinates": [3.0510262, 50.6724025]}, "record_timestamp": "2015-11-20T13:45:26+01:00"},{"datasetid": "referentiel-gares-voyageurs", "recordid": "c887243666a431de8acbc12504a2a91bdbfdb597", "fields": {"departement": "Nord", "commune": "Lesquin", "uic": "0087286849", "segment_drg": "b", "region": "Nord-Pas-de-Calais", "nombre_plateformes": "1", "niveau_de_service": "1", "wgs_84": [50.59068, 3.11771], "intitule_gare": "Lesquin", "code_postal": "59810"}, "geometry": {"type": "Point", "coordinates": [3.11771, 50.59068]}, "record_timestamp": "2015-11-20T13:45:26+01:00"},{"datasetid": "referentiel-gares-voyageurs", "recordid": "195eac81baccbb7b80f3c20d5bfaebd06cfbc0be", "fields": {"departement": "Nord", "commune": "Orchies", "uic": "0087286583", "segment_drg": "b", "region": "Nord-Pas-de-Calais", "nombre_plateformes": "1", "niveau_de_service": "2", "wgs_84": [50.47705, 3.24888], "intitule_gare": "Orchies", "code_postal": "59310"}, "geometry": {"type": "Point", "coordinates": [3.24888, 50.47705]}, "record_timestamp": "2015-11-20T13:45:26+01:00"},{"datasetid": "referentiel-gares-voyageurs", "recordid": "0b41b6833966d2c9ef86ad332136da4cbcf45db3", "fields": {"departement": "Nord", "commune": "Tourcoing", "uic": "0087286542", "segment_drg": "b", "region": "Nord-Pas-de-Calais", "nombre_plateformes": "1", "niveau_de_service": "2", "wgs_84": [50.71683, 3.16804], "intitule_gare": "Tourcoing", "code_postal": "59200"}, "geometry": {"type": "Point", "coordinates": [3.16804, 50.71683]}, "record_timestamp": "2015-11-20T13:45:26+01:00"},{"datasetid": "referentiel-gares-voyageurs", "recordid": "262bafb4a93f96ab0db680220f565b4498026e89", "fields": {"departement": "Nord", "commune": "Seclin", "uic": "0087286518", "segment_drg": "b", "region": "Nord-Pas-de-Calais", "nombre_plateformes": "1", "niveau_de_service": "1", "wgs_84": [50.5486319, 3.0350084], "intitule_gare": "Seclin", "code_postal": "59113"}, "geometry": {"type": "Point", "coordinates": [3.0350084, 50.5486319]}, "record_timestamp": "2015-11-20T13:45:26+01:00"},{"datasetid": "referentiel-gares-voyageurs", "recordid": "01ba24c6eeeaa7eacdc87e3202b54671929154c2", "fields": {"departement": "Nord", "commune": "Santes", "uic": "0087286401", "segment_drg": "c", "region": "Nord-Pas-de-Calais", "nombre_plateformes": "1", "niveau_de_service": "1", "wgs_84": [50.5920123, 2.961977], "intitule_gare": "Santes", "code_postal": "59211"}, "geometry": {"type": "Point", "coordinates": [2.961977, 50.5920123]}, "record_timestamp": "2015-11-20T13:45:26+01:00"},{"datasetid": "referentiel-gares-voyageurs", "recordid": "bffdeec6a123c16e4541667ae4e2f4994bdf06eb", "fields": {"departement": "Nord", "commune": "Hazebrouck", "uic": "0087286302", "segment_drg": "b", "region": "Nord-Pas-de-Calais", "nombre_plateformes": "1", "niveau_de_service": "2", "wgs_84": [50.72501, 2.54129], "intitule_gare": "Hazebrouck", "code_postal": "59190"}, "geometry": {"type": "Point", "coordinates": [2.54129, 50.72501]}, "record_timestamp": "2015-11-20T13:45:26+01:00"},{"datasetid": "referentiel-gares-voyageurs", "recordid": "4bfe343ea612ebf8bf0f56d8df5a1f1d42795d92", "fields": {"departement": "Nord", "commune": "P\u00e9renchies", "uic": "0087286278", "segment_drg": "b", "region": "Nord-Pas-de-Calais", "nombre_plateformes": "1", "niveau_de_service": "1", "wgs_84": [50.66697, 2.97729], "intitule_gare": "P\u00e9renchies", "code_postal": "59840"}, "geometry": {"type": "Point", "coordinates": [2.97729, 50.66697]}, "record_timestamp": "2015-11-20T13:45:26+01:00"},{"datasetid": "referentiel-gares-voyageurs", "recordid": "9ed557e42bba29fc239290684a1a627efb081587", "fields": {"departement": "Nord", "commune": "Steenwerck", "uic": "0087286161", "segment_drg": "c", "region": "Nord-Pas-de-Calais", "nombre_plateformes": "1", "niveau_de_service": "1", "wgs_84": [50.713459, 2.7855769], "intitule_gare": "Steenwerck", "code_postal": "59181"}, "geometry": {"type": "Point", "coordinates": [2.7855769, 50.713459]}, "record_timestamp": "2015-11-20T13:45:26+01:00"},{"datasetid": "referentiel-gares-voyageurs", "recordid": "f2d6c52f7eece7d517c01bda08c03c2266608fb0", "fields": {"departement": "Nord", "commune": "Haubourdin", "uic": "0087286096", "segment_drg": "c", "region": "Nord-Pas-de-Calais", "nombre_plateformes": "1", "niveau_de_service": "1", "wgs_84": [50.6070495, 2.990153], "intitule_gare": "Haubourdin", "code_postal": "59320"}, "geometry": {"type": "Point", "coordinates": [2.990153, 50.6070495]}, "record_timestamp": "2015-11-20T13:45:26+01:00"},{"datasetid": "referentiel-gares-voyageurs", "recordid": "1d95f79b6bc5aef7906ccadc9878187eb40cb148", "fields": {"departement": "Nord", "commune": "Lille", "uic": "0087286062", "segment_drg": "c", "region": "Nord-Pas-de-Calais", "nombre_plateformes": "1", "niveau_de_service": "1", "wgs_84": [50.6226402, 3.1149328], "intitule_gare": "Hellemmes", "code_postal": "59260"}, "geometry": {"type": "Point", "coordinates": [3.1149328, 50.6226402]}, "record_timestamp": "2015-11-20T13:45:26+01:00"},{"datasetid": "referentiel-gares-voyageurs", "recordid": "731249f6327d64c565fbcc36d81be43742900481", "fields": {"departement": "Nord", "commune": "Grande-Synthe", "uic": "0087281311", "segment_drg": "c", "region": "Nord-Pas-de-Calais", "nombre_plateformes": "1", "niveau_de_service": "1", "wgs_84": [51.0026884, 2.3133547], "intitule_gare": "Grande-Synthe", "code_postal": "59760"}, "geometry": {"type": "Point", "coordinates": [2.3133547, 51.0026884]}, "record_timestamp": "2015-11-20T13:45:26+01:00"},{"datasetid": "referentiel-gares-voyageurs", "recordid": "a065f975ed8c34fbb0abbafe061e585360973d36", "fields": {"departement": "Oise", "commune": "Rib\u00e9court-Dreslincourt", "uic": "0087276766", "segment_drg": "b", "region": "Picardie", "nombre_plateformes": "1", "niveau_de_service": "1", "wgs_84": [49.50633, 2.92714], "intitule_gare": "Rib\u00e9court", "code_postal": "60170"}, "geometry": {"type": "Point", "coordinates": [2.92714, 49.50633]}, "record_timestamp": "2015-11-20T13:45:26+01:00"},{"datasetid": "referentiel-gares-voyageurs", "recordid": "db2d6fd715c675ca286f3937a5a5d3ba9584e095", "fields": {"departement": "Oise", "commune": "Meux", "uic": "0087276733", "segment_drg": "c", "region": "Picardie", "nombre_plateformes": "1", "niveau_de_service": "1", "wgs_84": [49.3594029, 2.7532645], "intitule_gare": "Le Meux - Lacroix-Saint-Ouen", "code_postal": "60880"}, "geometry": {"type": "Point", "coordinates": [2.7532645, 49.3594029]}, "record_timestamp": "2015-11-20T13:45:26+01:00"},{"datasetid": "referentiel-gares-voyageurs", "recordid": "329c7a1018647b84f84ddbdfce41495dd71bd88f", "fields": {"departement": "Oise", "commune": "Bornel", "uic": "0087276717", "segment_drg": "b", "region": "Picardie", "nombre_plateformes": "1", "niveau_de_service": "1", "wgs_84": [49.19471, 2.20717], "intitule_gare": "Bornel - Belle-\u00c9glise", "code_postal": "60540"}, "geometry": {"type": "Point", "coordinates": [2.20717, 49.19471]}, "record_timestamp": "2015-11-20T13:45:26+01:00"},{"datasetid": "referentiel-gares-voyageurs", "recordid": "257d158389ca3879f4ac40d894e9662a2dc9315c", "fields": {"departement": "Val-d'Oise", "commune": "M\u00e9riel", "uic": "0087276675", "code_postal": "95630", "region": "\u00cele-de-France", "nombre_plateformes": "1", "segment_drg": "b", "wgs_84": [49.07777, 2.20528], "intitule_gare": "M\u00e9riel"}, "geometry": {"type": "Point", "coordinates": [2.20528, 49.07777]}, "record_timestamp": "2015-11-20T13:45:26+01:00"},{"datasetid": "referentiel-gares-voyageurs", "recordid": "c9783816a2b5ce2e7b67be470144b21afeb39a71", "fields": {"departement": "Val-d'Oise", "commune": "Fr\u00e9pillon", "uic": "0087276659", "code_postal": "95740", "region": "\u00cele-de-France", "nombre_plateformes": "1", "segment_drg": "b", "wgs_84": [49.0462, 2.19717], "intitule_gare": "Fr\u00e9pillon"}, "geometry": {"type": "Point", "coordinates": [2.19717, 49.0462]}, "record_timestamp": "2015-11-20T13:45:26+01:00"},{"datasetid": "referentiel-gares-voyageurs", "recordid": "050d9dee4272ffa95f2cc7d1dc97cac54da7f95b", "fields": {"departement": "Val-d'Oise", "commune": "Viarmes", "uic": "0087276568", "code_postal": "95270", "region": "\u00cele-de-France", "nombre_plateformes": "1", "segment_drg": "b", "wgs_84": [49.11692, 2.36838], "intitule_gare": "Viarmes"}, "geometry": {"type": "Point", "coordinates": [2.36838, 49.11692]}, "record_timestamp": "2015-11-20T13:45:26+01:00"},{"datasetid": "referentiel-gares-voyageurs", "recordid": "6b849c024c9a9e170670999a3ba54e0ab1d6d550", "fields": {"departement": "Val-d'Oise", "commune": "Parmain", "uic": "0087276527", "code_postal": "95290", "region": "\u00cele-de-France", "nombre_plateformes": "1", "segment_drg": "b", "wgs_84": [49.11482, 2.20976], "intitule_gare": "L'Isle-Adam - Parmain"}, "geometry": {"type": "Point", "coordinates": [2.20976, 49.11482]}, "record_timestamp": "2015-11-20T13:45:26+01:00"},{"datasetid": "referentiel-gares-voyageurs", "recordid": "2546fd89038a3ca0fdb4631b271170d4a6849773", "fields": {"departement": "Oise", "commune": "Pr\u00e9cy-sur-Oise", "uic": "0087276410", "segment_drg": "c", "region": "Picardie", "nombre_plateformes": "1", "niveau_de_service": "1", "wgs_84": [49.2033492, 2.3764638], "intitule_gare": "Pr\u00e9cy-sur-Oise", "code_postal": "60460"}, "geometry": {"type": "Point", "coordinates": [2.3764638, 49.2033492]}, "record_timestamp": "2015-11-20T13:45:26+01:00"},{"datasetid": "referentiel-gares-voyageurs", "recordid": "8b707f0d05cf7a4d908b454c83226a6759d9d1bf", "fields": {"departement": "Oise", "commune": "Pont-Sainte-Maxence", "uic": "0087276329", "segment_drg": "b", "region": "Picardie", "nombre_plateformes": "1", "niveau_de_service": "2", "wgs_84": [49.30974, 2.60289], "intitule_gare": "Pont-Sainte-Maxence", "code_postal": "60700"}, "geometry": {"type": "Point", "coordinates": [2.60289, 49.30974]}, "record_timestamp": "2015-11-20T13:45:26+01:00"},{"datasetid": "referentiel-gares-voyageurs", "recordid": "08c1c7da37373eb248a0ed152a5be7d14a094bb1", "fields": {"departement": "Oise", "commune": "Chevri\u00e8res", "uic": "0087276311", "segment_drg": "c", "region": "Picardie", "nombre_plateformes": "1", "niveau_de_service": "1", "wgs_84": [49.3373064, 2.6828025], "intitule_gare": "Chevri\u00e8res", "code_postal": "60710"}, "geometry": {"type": "Point", "coordinates": [2.6828025, 49.3373064]}, "record_timestamp": "2015-11-20T13:45:26+01:00"},{"datasetid": "referentiel-gares-voyageurs", "recordid": "0ff6a82bda2a80a57dc88076fcef6ae4e27b711c", "fields": {"departement": "Oise", "commune": "Orry-la-Ville", "uic": "0087276287", "segment_drg": "c", "region": "Picardie", "nombre_plateformes": "1", "niveau_de_service": "1", "wgs_84": [49.126985, 2.5058656], "intitule_gare": "La Borne Blanche", "code_postal": "60560"}, "geometry": {"type": "Point", "coordinates": [2.5058656, 49.126985]}, "record_timestamp": "2015-11-20T13:45:26+01:00"},{"datasetid": "referentiel-gares-voyageurs", "recordid": "03ce135fee6c50b193e4618fc64e9d4734dd3d9d", "fields": {"departement": "Val-d'Oise", "commune": "Louvres", "uic": "0087276253", "code_postal": "95380", "region": "\u00cele-de-France", "nombre_plateformes": "1", "segment_drg": "b", "wgs_84": [49.0496573, 2.5018967], "intitule_gare": "Louvres"}, "geometry": {"type": "Point", "coordinates": [2.5018967, 49.0496573]}, "record_timestamp": "2015-11-20T13:45:26+01:00"},{"datasetid": "referentiel-gares-voyageurs", "recordid": "8a0c5b2ee4150e598fb669ad7810448c71ad7901", "fields": {"departement": "Val-d'Oise", "commune": "Arnouville", "uic": "0087276220", "code_postal": "95400", "region": "\u00cele-de-France", "nombre_plateformes": "1", "segment_drg": "b", "wgs_84": [48.994175, 2.4162288], "intitule_gare": "Villiers-le-Bel - Gonesse - Arnouville"}, "geometry": {"type": "Point", "coordinates": [2.4162288, 48.994175]}, "record_timestamp": "2015-11-20T13:45:26+01:00"},{"datasetid": "referentiel-gares-voyageurs", "recordid": "ba2b1e39a0218814b6c2b8c1df0a7ca0322986b3", "fields": {"departement": "Val-d'Oise", "commune": "Sannois", "uic": "0087276188", "code_postal": "95110", "region": "\u00cele-de-France", "nombre_plateformes": "1", "segment_drg": "b", "wgs_84": [48.97016, 2.26377], "intitule_gare": "Sannois"}, "geometry": {"type": "Point", "coordinates": [2.26377, 48.97016]}, "record_timestamp": "2015-11-20T13:45:26+01:00"},{"datasetid": "referentiel-gares-voyageurs", "recordid": "203dac923351e0f0d9b192d1312ac3a1ed2aa8f6", "fields": {"departement": "Val-d'Oise", "commune": "Saint-Ouen-l'Aum\u00f4ne", "uic": "0087276147", "code_postal": "95310", "region": "\u00cele-de-France", "nombre_plateformes": "1", "segment_drg": "c", "wgs_84": [49.0549329, 2.1225973], "intitule_gare": "\u00c9pluches"}, "geometry": {"type": "Point", "coordinates": [2.1225973, 49.0549329]}, "record_timestamp": "2015-11-20T13:45:26+01:00"},{"datasetid": "referentiel-gares-voyageurs", "recordid": "bd0de2d4796f10d5b87a981fca0b2f409bb51887", "fields": {"departement": "Oise", "commune": "Chantilly", "uic": "0087276113", "segment_drg": "b", "region": "Picardie", "nombre_plateformes": "1", "niveau_de_service": "2", "wgs_84": [49.18724, 2.45979], "intitule_gare": "Chantilly - Gouvieux", "code_postal": "60500"}, "geometry": {"type": "Point", "coordinates": [2.45979, 49.18724]}, "record_timestamp": "2015-11-20T13:45:26+01:00"},{"datasetid": "referentiel-gares-voyageurs", "recordid": "24f7cb988954d9a2da09b61edd5b0257403f7c2c", "fields": {"departement": "Val-d'Oise", "commune": "Pierrelaye", "uic": "0087276097", "code_postal": "95480", "region": "\u00cele-de-France", "nombre_plateformes": "1", "segment_drg": "b", "wgs_84": [49.01955, 2.15371], "intitule_gare": "Pierrelaye"}, "geometry": {"type": "Point", "coordinates": [2.15371, 49.01955]}, "record_timestamp": "2015-11-20T13:45:26+01:00"},{"datasetid": "referentiel-gares-voyageurs", "recordid": "1ecc74d5b60839034d4fd9c79fb20b28cb5bc321", "fields": {"departement": "Seine-Saint-Denis", "commune": "Villepinte", "uic": "0087271486", "code_postal": "93420", "region": "\u00cele-de-France", "nombre_plateformes": "1", "segment_drg": "b", "wgs_84": [48.97334, 2.51382], "intitule_gare": "Parc des Expositions"}, "geometry": {"type": "Point", "coordinates": [2.51382, 48.97334]}, "record_timestamp": "2015-11-20T13:45:26+01:00"},{"datasetid": "referentiel-gares-voyageurs", "recordid": "c767258c202d4b01d52a5c900dd6e21765fbf3a2", "fields": {"departement": "Seine-Saint-Denis", "commune": "\u00c9pinay-sur-Seine", "uic": "0087271122", "code_postal": "93800", "region": "\u00cele-de-France", "nombre_plateformes": "1", "segment_drg": "b", "wgs_84": [48.95838, 2.32865], "intitule_gare": "\u00c9pinay - Villetaneuse"}, "geometry": {"type": "Point", "coordinates": [2.32865, 48.95838]}, "record_timestamp": "2015-11-20T13:45:26+01:00"},{"datasetid": "referentiel-gares-voyageurs", "recordid": "d0a6f15b6455eebf76c323adc01705da8f40d533", "fields": {"departement": "Paris", "commune": "Paris", "uic": "0087271007 0087271031 0087271023", "segment_drg": "a b", "region": "\u00cele-de-France", "nombre_plateformes": "4", "niveau_de_service": "3 2", "wgs_84": [48.880185, 2.355151], "intitule_gare": "Paris Gare du Nord", "code_postal": "75010"}, "geometry": {"type": "Point", "coordinates": [2.355151, 48.880185]}, "record_timestamp": "2015-11-20T13:45:26+01:00"},{"datasetid": "referentiel-gares-voyageurs", "recordid": "adbfa802a76985ea0c89bfdf7f2a424789a174de", "fields": {"departement": "Bas-Rhin", "commune": "Tieffenbach", "uic": "0087215699", "segment_drg": "c", "region": "Alsace", "nombre_plateformes": "1", "niveau_de_service": "1", "wgs_84": [48.9062169, 7.25527], "intitule_gare": "Tieffenbach - Struth", "code_postal": "67290"}, "geometry": {"type": "Point", "coordinates": [7.25527, 48.9062169]}, "record_timestamp": "2015-11-20T13:45:26+01:00"},{"datasetid": "referentiel-gares-voyageurs", "recordid": "6a8224fdc1c156f8b7e42574674c0854eb463b99", "fields": {"departement": "Haute-Garonne", "commune": "Marignac", "uic": "0087611194", "segment_drg": "c", "region": "Midi-Pyr\u00e9n\u00e9es", "nombre_plateformes": "1", "niveau_de_service": "1", "wgs_84": [42.9155675, 0.651998], "intitule_gare": "Marignac - Saint-B\u00e9at", "code_postal": "31440"}, "geometry": {"type": "Point", "coordinates": [0.651998, 42.9155675]}, "record_timestamp": "2015-11-20T13:45:26+01:00"},{"datasetid": "referentiel-gares-voyageurs", "recordid": "dbd6b9a6ece4f92839c6d6812fa75d9fa848b1e5", "fields": {"departement": "Haute-Garonne", "commune": "Martres-Tolosane", "uic": "0087611087", "segment_drg": "c", "region": "Midi-Pyr\u00e9n\u00e9es", "nombre_plateformes": "1", "niveau_de_service": "1", "wgs_84": [43.1962069, 1.0167558], "intitule_gare": "Martres-Tolosane", "code_postal": "31220"}, "geometry": {"type": "Point", "coordinates": [1.0167558, 43.1962069]}, "record_timestamp": "2015-11-20T13:45:26+01:00"},{"datasetid": "referentiel-gares-voyageurs", "recordid": "fe954c5cf3b580ddf417143514c06f38deb4e4d5", "fields": {"departement": "Haute-Garonne", "commune": "Carbonne", "uic": "0087611061", "segment_drg": "b", "region": "Midi-Pyr\u00e9n\u00e9es", "nombre_plateformes": "1", "niveau_de_service": "1", "wgs_84": [43.298206, 1.212531], "intitule_gare": "Carbonne", "code_postal": "31390"}, "geometry": {"type": "Point", "coordinates": [1.212531, 43.298206]}, "record_timestamp": "2015-11-20T13:45:26+01:00"},{"datasetid": "referentiel-gares-voyageurs", "recordid": "dddf9d9a6858633a32a91c0f86b9603129c7aeed", "fields": {"departement": "Creuse", "commune": "Lavaveix-les-Mines", "uic": "0087597781", "segment_drg": "c", "region": "Limousin", "nombre_plateformes": "1", "niveau_de_service": "1", "wgs_84": [46.0795307, 2.0890801], "intitule_gare": "Lavaveix-les-Mines", "code_postal": "23150"}, "geometry": {"type": "Point", "coordinates": [2.0890801, 46.0795307]}, "record_timestamp": "2015-11-20T13:45:26+01:00"},{"datasetid": "referentiel-gares-voyageurs", "recordid": "d11c5f370678a81e423b93e93f3afc8088b010ae", "fields": {"departement": "Creuse", "commune": "Mourioux-Vieilleville", "uic": "0087597633", "segment_drg": "c", "region": "Limousin", "nombre_plateformes": "1", "niveau_de_service": "1", "wgs_84": [46.0910959, 1.6736439], "intitule_gare": "Vieilleville", "code_postal": "23210"}, "geometry": {"type": "Point", "coordinates": [1.6736439, 46.0910959]}, "record_timestamp": "2015-11-20T13:45:26+01:00"},{"datasetid": "referentiel-gares-voyageurs", "recordid": "c7a2222a5b9d9f41183013c0f20d09cc2273de38", "fields": {"departement": "Indre", "commune": "\u00c9guzon-Chant\u00f4me", "uic": "0087597153", "segment_drg": "c", "region": "Centre", "nombre_plateformes": "1", "niveau_de_service": "1", "wgs_84": [46.4397694, 1.5521707], "intitule_gare": "\u00c9guzon", "code_postal": "36270"}, "geometry": {"type": "Point", "coordinates": [1.5521707, 46.4397694]}, "record_timestamp": "2015-11-20T13:45:26+01:00"},{"datasetid": "referentiel-gares-voyageurs", "recordid": "c23d16d0b5e094814992f8b172afd7758b2cb7cb", "fields": {"departement": "Indre", "commune": "Argenton-sur-Creuse", "uic": "0087597120", "segment_drg": "b", "region": "Centre", "nombre_plateformes": "1", "niveau_de_service": "1", "wgs_84": [46.592248, 1.518305], "intitule_gare": "Argenton-sur-Creuse", "code_postal": "36200"}, "geometry": {"type": "Point", "coordinates": [1.518305, 46.592248]}, "record_timestamp": "2015-11-20T13:45:26+01:00"},{"datasetid": "referentiel-gares-voyageurs", "recordid": "ee95901f10a893928eeac442b6e4d9147ce87dfb", "fields": {"departement": "Dordogne", "commune": "Montpon-M\u00e9nest\u00e9rol", "uic": "0087595322", "segment_drg": "b", "region": "Aquitaine", "nombre_plateformes": "1", "niveau_de_service": "1", "wgs_84": [45.006326, 0.159328], "intitule_gare": "Montpon-M\u00e9nest\u00e9rol", "code_postal": "24700"}, "geometry": {"type": "Point", "coordinates": [0.159328, 45.006326]}, "record_timestamp": "2015-11-20T13:45:26+01:00"},{"datasetid": "referentiel-gares-voyageurs", "recordid": "f41ca647137a7fe771593966e11a2ddfa323ca8c", "fields": {"departement": "Dordogne", "commune": "Douzillac", "uic": "0087595280", "segment_drg": "c", "region": "Aquitaine", "nombre_plateformes": "1", "niveau_de_service": "1", "wgs_84": [45.0794691, 0.4173893], "intitule_gare": "Douzillac", "code_postal": "24190"}, "geometry": {"type": "Point", "coordinates": [0.4173893, 45.0794691]}, "record_timestamp": "2015-11-20T13:45:26+01:00"},{"datasetid": "referentiel-gares-voyageurs", "recordid": "9230e812624793e2740a5793f72373be21004695", "fields": {"departement": "Dordogne", "commune": "Agonac", "uic": "0087595157", "segment_drg": "c", "region": "Aquitaine", "nombre_plateformes": "1", "niveau_de_service": "1", "wgs_84": [45.2865966, 0.7486706], "intitule_gare": "Agonac", "code_postal": "24460"}, "geometry": {"type": "Point", "coordinates": [0.7486706, 45.2865966]}, "record_timestamp": "2015-11-20T13:45:26+01:00"},{"datasetid": "referentiel-gares-voyageurs", "recordid": "20aae517736fc3272c24ceabe6c372182599c61c", "fields": {"departement": "Lot", "commune": "Laval-de-C\u00e8re", "uic": "0087594796", "segment_drg": "c", "region": "Midi-Pyr\u00e9n\u00e9es", "nombre_plateformes": "1", "niveau_de_service": "1", "wgs_84": [44.9512118, 1.9317113], "intitule_gare": "Laval-de-C\u00e8re", "code_postal": "46130"}, "geometry": {"type": "Point", "coordinates": [1.9317113, 44.9512118]}, "record_timestamp": "2015-11-20T13:45:26+01:00"},{"datasetid": "referentiel-gares-voyageurs", "recordid": "801e5bd13f5171188018b5bc1c314caeec01a529", "fields": {"departement": "Corr\u00e8ze", "commune": "Lubersac", "uic": "0087594671", "segment_drg": "c", "region": "Limousin", "nombre_plateformes": "1", "niveau_de_service": "1", "wgs_84": [45.4446152, 1.3888289], "intitule_gare": "Lubersac", "code_postal": "19210"}, "geometry": {"type": "Point", "coordinates": [1.3888289, 45.4446152]}, "record_timestamp": "2015-11-20T13:45:26+01:00"},{"datasetid": "referentiel-gares-voyageurs", "recordid": "ef21f165b9b5c684c45fd32055c444ea2e9c0738", "fields": {"departement": "Corr\u00e8ze", "commune": "Saint-Solve", "uic": "0087594655", "segment_drg": "c", "region": "Limousin", "nombre_plateformes": "1", "niveau_de_service": "1", "wgs_84": [45.313078, 1.397515], "intitule_gare": "Vignols - Saint-Solve", "code_postal": "19130"}, "geometry": {"type": "Point", "coordinates": [1.397515, 45.313078]}, "record_timestamp": "2015-11-20T13:45:26+01:00"},{"datasetid": "referentiel-gares-voyageurs", "recordid": "e519a2f505a04235499c7744e4f8c0338eddb9ba", "fields": {"departement": "Corr\u00e8ze", "commune": "Turenne", "uic": "0087594556", "segment_drg": "c", "region": "Limousin", "nombre_plateformes": "1", "niveau_de_service": "1", "wgs_84": [45.0379541, 1.6007045], "intitule_gare": "Turenne", "code_postal": "19500"}, "geometry": {"type": "Point", "coordinates": [1.6007045, 45.0379541]}, "record_timestamp": "2015-11-20T13:45:26+01:00"},{"datasetid": "referentiel-gares-voyageurs", "recordid": "6189459854da37441ca1bd90ce52f575e3045e7e", "fields": {"departement": "Corr\u00e8ze", "commune": "Ussel", "uic": "0087594093", "segment_drg": "c", "region": "Limousin", "nombre_plateformes": "1", "niveau_de_service": "1", "wgs_84": [45.5574383, 2.3143439], "intitule_gare": "Ussel", "code_postal": "19200"}, "geometry": {"type": "Point", "coordinates": [2.3143439, 45.5574383]}, "record_timestamp": "2015-11-20T13:45:26+01:00"},{"datasetid": "referentiel-gares-voyageurs", "recordid": "9b085695f61aed9e7fce48dc1d46bee5ee9a767d", "fields": {"departement": "Corr\u00e8ze", "commune": "Brive-la-Gaillarde", "uic": "0087594002", "segment_drg": "a", "region": "Limousin", "nombre_plateformes": "1", "niveau_de_service": "2", "wgs_84": [45.152618, 1.528655], "intitule_gare": "Brive-la-Gaillarde", "code_postal": "19100"}, "geometry": {"type": "Point", "coordinates": [1.528655, 45.152618]}, "record_timestamp": "2015-11-20T13:45:26+01:00"},{"datasetid": "referentiel-gares-voyageurs", "recordid": "b52efacea67e6c1a37d9571942dde509f261bd4f", "fields": {"departement": "Haute-Vienne", "commune": "Aixe-sur-Vienne", "uic": "0087592667", "segment_drg": "c", "region": "Limousin", "nombre_plateformes": "1", "niveau_de_service": "1", "wgs_84": [45.7965002, 1.1456892], "intitule_gare": "Aixe-sur-Vienne", "code_postal": "87700"}, "geometry": {"type": "Point", "coordinates": [1.1456892, 45.7965002]}, "record_timestamp": "2015-11-20T13:45:26+01:00"},{"datasetid": "referentiel-gares-voyageurs", "recordid": "b3a849c2689232c51f40c49f8d9c6044754fe058", "fields": {"departement": "Haute-Vienne", "commune": "Dorat", "uic": "0087592543", "segment_drg": "c", "region": "Limousin", "nombre_plateformes": "1", "niveau_de_service": "1", "wgs_84": [46.2110908, 1.0793364], "intitule_gare": "Le Dorat", "code_postal": "87210"}, "geometry": {"type": "Point", "coordinates": [1.0793364, 46.2110908]}, "record_timestamp": "2015-11-20T13:45:26+01:00"},{"datasetid": "referentiel-gares-voyageurs", "recordid": "c9985e143ce30f3bd5ea343df2dd2b57b046a187", "fields": {"departement": "Haute-Vienne", "commune": "Vaulry", "uic": "0087592451", "segment_drg": "c", "region": "Limousin", "nombre_plateformes": "1", "niveau_de_service": "1", "wgs_84": [46.0247131, 1.1091331], "intitule_gare": "Vaulry", "code_postal": "87140"}, "geometry": {"type": "Point", "coordinates": [1.1091331, 46.0247131]}, "record_timestamp": "2015-11-20T13:45:26+01:00"},{"datasetid": "referentiel-gares-voyageurs", "recordid": "f49eaf9239d5c20a776e0951c0bf7ebee4dd1455", "fields": {"departement": "Creuse", "commune": "Souterraine", "uic": "0087592378", "segment_drg": "b", "region": "Limousin", "nombre_plateformes": "1", "niveau_de_service": "1", "wgs_84": [46.239792, 1.492151], "intitule_gare": "La Souterraine", "code_postal": "23300"}, "geometry": {"type": "Point", "coordinates": [1.492151, 46.239792]}, "record_timestamp": "2015-11-20T13:45:26+01:00"},{"datasetid": "referentiel-gares-voyageurs", "recordid": "f0aee9656b52db0c887d61ca6f139df8e4f82995", "fields": {"departement": "Haute-Vienne", "commune": "Saint-Sulpice-Lauri\u00e8re", "uic": "0087592345", "segment_drg": "c", "region": "Limousin", "nombre_plateformes": "1", "niveau_de_service": "1", "wgs_84": [46.0469183, 1.4762218], "intitule_gare": "Saint-Sulpice-Lauri\u00e8re", "code_postal": "87370"}, "geometry": {"type": "Point", "coordinates": [1.4762218, 46.0469183]}, "record_timestamp": "2015-11-20T13:45:26+01:00"},{"datasetid": "referentiel-gares-voyageurs", "recordid": "95571ce23abc7b30b7d70337e704c21f96e03244", "fields": {"departement": "Haute-Vienne", "commune": "Vicq-sur-Breuilh", "uic": "0087592279", "segment_drg": "c", "region": "Limousin", "nombre_plateformes": "1", "niveau_de_service": "1", "wgs_84": [45.6288007, 1.4438445], "intitule_gare": "Magnac - Vicq", "code_postal": "87380"}, "geometry": {"type": "Point", "coordinates": [1.4438445, 45.6288007]}, "record_timestamp": "2015-11-20T13:45:26+01:00"},{"datasetid": "referentiel-gares-voyageurs", "recordid": "00bbf8348e7e08684d226feb58bc9e55b68a2931", "fields": {"departement": "Corr\u00e8ze", "commune": "P\u00e9rols-sur-V\u00e9z\u00e8re", "uic": "0087592188", "segment_drg": "c", "region": "Limousin", "nombre_plateformes": "1", "niveau_de_service": "1", "wgs_84": [45.5661652, 2.0188676], "intitule_gare": "Barsanges", "code_postal": "19170"}, "geometry": {"type": "Point", "coordinates": [2.0188676, 45.5661652]}, "record_timestamp": "2015-11-20T13:45:26+01:00"},{"datasetid": "referentiel-gares-voyageurs", "recordid": "79f022d58d804b3ffcf703477aabadf143be255f", "fields": {"departement": "Haute-Vienne", "commune": "Roy\u00e8res", "uic": "0087592063", "segment_drg": "c", "region": "Limousin", "nombre_plateformes": "1", "niveau_de_service": "1", "wgs_84": [45.8635812, 1.4406315], "intitule_gare": "Brignac", "code_postal": "87400"}, "geometry": {"type": "Point", "coordinates": [1.4406315, 45.8635812]}, "record_timestamp": "2015-11-20T13:45:26+01:00"},{"datasetid": "referentiel-gares-voyageurs", "recordid": "6c8ef24948e3be30e230df0079acec94760318eb", "fields": {"departement": "Haute-Vienne", "commune": "Limoges", "uic": "0087592022", "segment_drg": "c", "region": "Limousin", "nombre_plateformes": "1", "niveau_de_service": "1", "wgs_84": [45.8384117, 1.2514147], "intitule_gare": "Limoges Montjovis", "code_postal": "87100"}, "geometry": {"type": "Point", "coordinates": [1.2514147, 45.8384117]}, "record_timestamp": "2015-11-20T13:45:26+01:00"},{"datasetid": "referentiel-gares-voyageurs", "recordid": "30192f72a77c88c9d118397748856bed7a017adb", "fields": {"departement": "Haute-Vienne", "commune": "Limoges", "uic": "0087592006", "segment_drg": "a", "region": "Limousin", "nombre_plateformes": "1", "niveau_de_service": "2", "wgs_84": [45.836089, 1.267356], "intitule_gare": "Limoges B\u00e9n\u00e9dictins", "code_postal": "87000"}, "geometry": {"type": "Point", "coordinates": [1.267356, 45.836089]}, "record_timestamp": "2015-11-20T13:45:26+01:00"},{"datasetid": "referentiel-gares-voyageurs", "recordid": "e1bbeeca22913868b2333024ccb9399540cd68d0", "fields": {"departement": "Loire-Atlantique", "commune": "Chapelle-sur-Erdre", "uic": "0087590349", "segment_drg": "c", "region": "Pays de la Loire", "nombre_plateformes": "1", "niveau_de_service": "1", "wgs_84": [47.2591762, -1.5452842], "intitule_gare": "Babini\u00e8re", "code_postal": "44240"}, "geometry": {"type": "Point", "coordinates": [-1.5452842, 47.2591762]}, "record_timestamp": "2015-11-20T13:45:26+01:00"},{"datasetid": "referentiel-gares-voyageurs", "recordid": "bae9bded5cfbf688c7809a4ab0090f91e5aa93b8", "fields": {"departement": "Loire-Atlantique", "commune": "Nantes", "uic": "0087590331", "segment_drg": "c", "region": "Pays de la Loire", "nombre_plateformes": "1", "niveau_de_service": "1", "wgs_84": [47.249142, -1.5224436], "intitule_gare": "Haluch\u00e8re Batignolles", "code_postal": "44000"}, "geometry": {"type": "Point", "coordinates": [-1.5224436, 47.249142]}, "record_timestamp": "2015-11-20T13:45:26+01:00"},{"datasetid": "referentiel-gares-voyageurs", "recordid": "44b279dee26949eedddbdacd8845770b6bf6f02a", "fields": {"departement": "Gironde", "commune": "Ambar\u00e8s-et-Lagrave", "uic": "0087584755", "segment_drg": "c", "region": "Aquitaine", "nombre_plateformes": "1", "niveau_de_service": "1", "wgs_84": [44.9288345, -0.4963844], "intitule_gare": "La Gorp", "code_postal": "33380"}, "geometry": {"type": "Point", "coordinates": [-0.4963844, 44.9288345]}, "record_timestamp": "2015-11-20T13:45:26+01:00"},{"datasetid": "referentiel-gares-voyageurs", "recordid": "eb3a37ab6791344f449fa69befcf6191f741a8c9", "fields": {"departement": "Gironde", "commune": "Saint-Denis-de-Pile", "uic": "0087584508", "segment_drg": "c", "region": "Aquitaine", "nombre_plateformes": "1", "niveau_de_service": "1", "wgs_84": [44.9786053, -0.1980825], "intitule_gare": "Saint-Denis-de-Pile", "code_postal": "33910"}, "geometry": {"type": "Point", "coordinates": [-0.1980825, 44.9786053]}, "record_timestamp": "2015-11-20T13:45:26+01:00"},{"datasetid": "referentiel-gares-voyageurs", "recordid": "ceba81c21d54e699055764ed5b783541d80c46e5", "fields": {"departement": "Dordogne", "commune": "Tr\u00e9molat", "uic": "0087584474", "segment_drg": "c", "region": "Aquitaine", "nombre_plateformes": "1", "niveau_de_service": "1", "wgs_84": [44.8625105, 0.8303278], "intitule_gare": "Tr\u00e9molat", "code_postal": "24510"}, "geometry": {"type": "Point", "coordinates": [0.8303278, 44.8625105]}, "record_timestamp": "2015-11-20T13:45:26+01:00"},{"datasetid": "referentiel-gares-voyageurs", "recordid": "b11d3067ed8dfec28dbc158f75ba8c92abfe08ea", "fields": {"departement": "Dordogne", "commune": "V\u00e9lines", "uic": "0087584177", "segment_drg": "c", "region": "Aquitaine", "nombre_plateformes": "1", "niveau_de_service": "1", "wgs_84": [44.8520145, 0.1036584], "intitule_gare": "V\u00e9lines", "code_postal": "24230"}, "geometry": {"type": "Point", "coordinates": [0.1036584, 44.8520145]}, "record_timestamp": "2015-11-20T13:45:26+01:00"},{"datasetid": "referentiel-gares-voyageurs", "recordid": "3b9109c4a7e875977fcb570babf5d02c6fdcd236", "fields": {"departement": "Gironde", "commune": "Saint-\u00c9milion", "uic": "0087584102", "segment_drg": "c", "region": "Aquitaine", "nombre_plateformes": "1", "niveau_de_service": "1", "wgs_84": [44.8811665, -0.1592003], "intitule_gare": "Saint-\u00c9milion", "code_postal": "33330"}, "geometry": {"type": "Point", "coordinates": [-0.1592003, 44.8811665]}, "record_timestamp": "2015-11-20T13:45:26+01:00"},{"datasetid": "referentiel-gares-voyageurs", "recordid": "86a2dde44c22c8515a0d1ee8bd25c37506cb5b57", "fields": {"departement": "Charente", "commune": "Ruffec", "uic": "0087583849", "segment_drg": "c", "region": "Poitou-Charentes", "nombre_plateformes": "1", "niveau_de_service": "1", "wgs_84": [46.0305185, 0.1902055], "intitule_gare": "Ruffec", "code_postal": "16700"}, "geometry": {"type": "Point", "coordinates": [0.1902055, 46.0305185]}, "record_timestamp": "2015-11-20T13:45:26+01:00"},{"datasetid": "referentiel-gares-voyageurs", "recordid": "ff3d71643415f272aa58724664c4677c66254112", "fields": {"departement": "Charente", "commune": "Rochefoucauld", "uic": "0087583427", "segment_drg": "c", "region": "Poitou-Charentes", "nombre_plateformes": "1", "niveau_de_service": "1", "wgs_84": [45.7401921, 0.3895946], "intitule_gare": "La Rochefoucauld", "code_postal": "16110"}, "geometry": {"type": "Point", "coordinates": [0.3895946, 45.7401921]}, "record_timestamp": "2015-11-20T13:45:26+01:00"},{"datasetid": "referentiel-gares-voyageurs", "recordid": "b2e5835e4eadb6648422194afb87fc6c61e114e1", "fields": {"departement": "Charente", "commune": "Angoul\u00eame", "uic": "0087583005", "segment_drg": "a", "region": "Poitou-Charentes", "nombre_plateformes": "1", "niveau_de_service": "2", "wgs_84": [45.653572, 0.164608], "intitule_gare": "Angoul\u00eame", "code_postal": "16000"}, "geometry": {"type": "Point", "coordinates": [0.164608, 45.653572]}, "record_timestamp": "2015-11-20T13:45:26+01:00"},{"datasetid": "referentiel-gares-voyageurs", "recordid": "e5cfb4ab0504d338d8e80f33b52ed18036b210a8", "fields": {"departement": "Gironde", "commune": "Podensac", "uic": "0087582734", "segment_drg": "c", "region": "Aquitaine", "nombre_plateformes": "1", "niveau_de_service": "1", "wgs_84": [44.6489664, -0.3589057], "intitule_gare": "Podensac", "code_postal": "33720"}, "geometry": {"type": "Point", "coordinates": [-0.3589057, 44.6489664]}, "record_timestamp": "2015-11-20T13:45:26+01:00"},{"datasetid": "referentiel-gares-voyageurs", "recordid": "6e9d5a48e4f690dbb45d8d708e7a39f6c4086832", "fields": {"departement": "Gironde", "commune": "Beautiran", "uic": "0087582700", "segment_drg": "b", "region": "Aquitaine", "nombre_plateformes": "1", "niveau_de_service": "1", "wgs_84": [44.701041, -0.45017], "intitule_gare": "Beautiran", "code_postal": "33640"}, "geometry": {"type": "Point", "coordinates": [-0.45017, 44.701041]}, "record_timestamp": "2015-11-20T13:45:26+01:00"},{"datasetid": "referentiel-gares-voyageurs", "recordid": "7e1e78d683ba2250a7f41ed57ffdec1217f82d79", "fields": {"departement": "Gironde", "commune": "Villenave-d'Ornon", "uic": "0087581835", "segment_drg": "c", "region": "Aquitaine", "nombre_plateformes": "1", "niveau_de_service": "1", "wgs_84": [44.7683428, -0.5472574], "intitule_gare": "Villenave-d'Ornon", "code_postal": "33140"}, "geometry": {"type": "Point", "coordinates": [-0.5472574, 44.7683428]}, "record_timestamp": "2015-11-20T13:45:26+01:00"},{"datasetid": "referentiel-gares-voyageurs", "recordid": "0efc49cd4da56b240cd06f65a69099bba178ee65", "fields": {"departement": "Gironde", "commune": "Pessac", "uic": "0087581793", "segment_drg": "b", "region": "Aquitaine", "nombre_plateformes": "1", "niveau_de_service": "1", "wgs_84": [44.793355, -0.65965], "intitule_gare": "Alouette France", "code_postal": "33600"}, "geometry": {"type": "Point", "coordinates": [-0.65965, 44.793355]}, "record_timestamp": "2015-11-20T13:45:26+01:00"},{"datasetid": "referentiel-gares-voyageurs", "recordid": "f860cd705a75b16acfb73c31f0738444b0b874b5", "fields": {"departement": "Gironde", "commune": "Soulac-sur-Mer", "uic": "0087581371", "segment_drg": "c", "region": "Aquitaine", "nombre_plateformes": "1", "niveau_de_service": "1", "wgs_84": [45.5081769, -1.1175894], "intitule_gare": "Soulac-sur-Mer", "code_postal": "33780"}, "geometry": {"type": "Point", "coordinates": [-1.1175894, 45.5081769]}, "record_timestamp": "2015-11-20T13:45:26+01:00"},{"datasetid": "referentiel-gares-voyageurs", "recordid": "50becf1a14064a1f541fbcd0fd415c48b43c56cf", "fields": {"departement": "Gironde", "commune": "Pauillac", "uic": "0087581256", "segment_drg": "c", "region": "Aquitaine", "nombre_plateformes": "1", "niveau_de_service": "1", "wgs_84": [45.2038438, -0.7551342], "intitule_gare": "Pauillac", "code_postal": "33250"}, "geometry": {"type": "Point", "coordinates": [-0.7551342, 45.2038438]}, "record_timestamp": "2015-11-20T13:45:26+01:00"},{"datasetid": "referentiel-gares-voyageurs", "recordid": "f18c5cf130a6762841b6767ef5fc9a9161bcbbee", "fields": {"departement": "Gironde", "commune": "Macau", "uic": "0087581199", "segment_drg": "c", "region": "Aquitaine", "nombre_plateformes": "1", "niveau_de_service": "1", "wgs_84": [45.0040981, -0.6200068], "intitule_gare": "Macau", "code_postal": "33460"}, "geometry": {"type": "Point", "coordinates": [-0.6200068, 45.0040981]}, "record_timestamp": "2015-11-20T13:45:26+01:00"},{"datasetid": "referentiel-gares-voyageurs", "recordid": "05fa81ad74d36417b590ef100c83dfe11b80fd54", "fields": {"departement": "Cher", "commune": "Bengy-sur-Craon", "uic": "0087576447", "segment_drg": "c", "region": "Centre", "nombre_plateformes": "1", "niveau_de_service": "1", "wgs_84": [47.0004698, 2.7492361], "intitule_gare": "Bengy", "code_postal": "18520"}, "geometry": {"type": "Point", "coordinates": [2.7492361, 47.0004698]}, "record_timestamp": "2015-11-20T13:45:26+01:00"},{"datasetid": "referentiel-gares-voyageurs", "recordid": "e954c532132dc20674004a6b219d6a2968ace733", "fields": {"departement": "Cher", "commune": "Lunery", "uic": "0087576280", "segment_drg": "c", "region": "Centre", "nombre_plateformes": "1", "niveau_de_service": "1", "wgs_84": [46.9351795, 2.275014], "intitule_gare": "Lunery", "code_postal": "18400"}, "geometry": {"type": "Point", "coordinates": [2.275014, 46.9351795]}, "record_timestamp": "2015-11-20T13:45:26+01:00"},{"datasetid": "referentiel-gares-voyageurs", "recordid": "e5e5492c44df2245aab42c618954346a8ed8e530", "fields": {"departement": "Loir-et-Cher", "commune": "Villeherviers", "uic": "0087576165", "segment_drg": "c", "region": "Centre", "nombre_plateformes": "1", "niveau_de_service": "1", "wgs_84": [47.3694005, 1.7972555], "intitule_gare": "Villeherviers", "code_postal": "41200"}, "geometry": {"type": "Point", "coordinates": [1.7972555, 47.3694005]}, "record_timestamp": "2015-11-20T13:45:26+01:00"},{"datasetid": "referentiel-gares-voyageurs", "recordid": "970995e0cab475e5e1739e02cf85834ae352b397", "fields": {"departement": "Cher", "commune": "Vierzon", "uic": "0087576090", "segment_drg": "c", "region": "Centre", "nombre_plateformes": "1", "niveau_de_service": "1", "wgs_84": [47.2099931, 2.0994545], "intitule_gare": "Vierzon Forges", "code_postal": "18100"}, "geometry": {"type": "Point", "coordinates": [2.0994545, 47.2099931]}, "record_timestamp": "2015-11-20T13:45:26+01:00"},{"datasetid": "referentiel-gares-voyageurs", "recordid": "e648a790f5465e6daab273e7efd506875fecc366", "fields": {"departement": "Loir-et-Cher", "commune": "Fert\u00e9-Imbault", "uic": "0087576082", "segment_drg": "c", "region": "Centre", "nombre_plateformes": "1", "niveau_de_service": "1", "wgs_84": [47.3835442, 1.9580537], "intitule_gare": "La Fert\u00e9-Imbault", "code_postal": "41300"}, "geometry": {"type": "Point", "coordinates": [1.9580537, 47.3835442]}, "record_timestamp": "2015-11-20T13:45:26+01:00"},{"datasetid": "referentiel-gares-voyageurs", "recordid": "0ab87783aaf0ddd26376356ad8308d014146cc4b", "fields": {"departement": "Vienne", "commune": "Vivonne", "uic": "0087575290", "segment_drg": "c", "region": "Poitou-Charentes", "nombre_plateformes": "1", "niveau_de_service": "1", "wgs_84": [46.4266355, 0.2653156], "intitule_gare": "Vivonne", "code_postal": "86370"}, "geometry": {"type": "Point", "coordinates": [0.2653156, 46.4266355]}, "record_timestamp": "2015-11-20T13:45:26+01:00"},{"datasetid": "referentiel-gares-voyageurs", "recordid": "7fd0149c7089334dda9501d653a19a580d6689cf", "fields": {"departement": "Vienne", "commune": "Dissay", "uic": "0087575191", "segment_drg": "c", "region": "Poitou-Charentes", "nombre_plateformes": "1", "niveau_de_service": "1", "wgs_84": [46.703544, 0.4210161], "intitule_gare": "Dissay", "code_postal": "86130"}, "geometry": {"type": "Point", "coordinates": [0.4210161, 46.703544]}, "record_timestamp": "2015-11-20T13:45:26+01:00"},{"datasetid": "referentiel-gares-voyageurs", "recordid": "afecccb9658f60f0c7f931d603b4e1ecf081ce0c", "fields": {"departement": "Vienne", "commune": "Dang\u00e9-Saint-Romain", "uic": "0087575126", "segment_drg": "c", "region": "Poitou-Charentes", "nombre_plateformes": "1", "niveau_de_service": "1", "wgs_84": [46.9378397, 0.6087754], "intitule_gare": "Dang\u00e9-Saint-Romain", "code_postal": "86220"}, "geometry": {"type": "Point", "coordinates": [0.6087754, 46.9378397]}, "record_timestamp": "2015-11-20T13:45:26+01:00"},{"datasetid": "referentiel-gares-voyageurs", "recordid": "5f7b8807bc3865d071d01a7bd7e29f4c00453061", "fields": {"departement": "Vienne", "commune": "Ormes", "uic": "0087575118", "segment_drg": "c", "region": "Poitou-Charentes", "nombre_plateformes": "1", "niveau_de_service": "1", "wgs_84": [46.9718269, 0.6079476], "intitule_gare": "Les Ormes", "code_postal": "86220"}, "geometry": {"type": "Point", "coordinates": [0.6079476, 46.9718269]}, "record_timestamp": "2015-11-20T13:45:26+01:00"},{"datasetid": "referentiel-gares-voyageurs", "recordid": "1c2dd55b46fd57475b1f26cb1268bd152542f250", "fields": {"departement": "Indre-et-Loire", "commune": "Celle-Saint-Avant", "uic": "0087575076", "segment_drg": "c", "region": "Centre", "nombre_plateformes": "1", "niveau_de_service": "1", "wgs_84": [47.0102599, 0.5989179], "intitule_gare": "Port-de-Piles", "code_postal": "37000"}, "geometry": {"type": "Point", "coordinates": [0.5989179, 47.0102599]}, "record_timestamp": "2015-11-20T13:45:26+01:00"},{"datasetid": "referentiel-gares-voyageurs", "recordid": "6d99215aaf79005f23cbf71f14d74e5708516cf2", "fields": {"departement": "Indre-et-Loire", "commune": "Noyant-de-Touraine", "uic": "0087575050", "segment_drg": "c", "region": "Centre", "nombre_plateformes": "1", "niveau_de_service": "1", "wgs_84": [47.1112361, 0.5769439], "intitule_gare": "Sainte-Maure - Noyant", "code_postal": "37800"}, "geometry": {"type": "Point", "coordinates": [0.5769439, 47.1112361]}, "record_timestamp": "2015-11-20T13:45:26+01:00"},{"datasetid": "referentiel-gares-voyageurs", "recordid": "8ca6a6f703595e222c62c4b1a15416b2b3353273", "fields": {"departement": "Vienne", "commune": "Poitiers", "uic": "0087575001", "segment_drg": "a", "region": "Poitou-Charentes", "nombre_plateformes": "1", "niveau_de_service": "2", "wgs_84": [46.582275, 0.333241], "intitule_gare": "Poitiers", "code_postal": "86000"}, "geometry": {"type": "Point", "coordinates": [0.333241, 46.582275]}, "record_timestamp": "2015-11-20T13:45:26+01:00"},{"datasetid": "referentiel-gares-voyageurs", "recordid": "4261dc3f88fc64e800ecc19432dd6444b9af7b66", "fields": {"departement": "Loir-et-Cher", "commune": "Noyers-sur-Cher", "uic": "0087574897", "segment_drg": "c", "region": "Centre", "nombre_plateformes": "1", "niveau_de_service": "1", "wgs_84": [47.2869126, 1.3838369], "intitule_gare": "Saint-Aignan - Noyers", "code_postal": "41110"}, "geometry": {"type": "Point", "coordinates": [1.3838369, 47.2869126]}, "record_timestamp": "2015-11-20T13:45:26+01:00"},{"datasetid": "referentiel-gares-voyageurs", "recordid": "77cf52348c2144c6387b754e142fd5a7d15800e6", "fields": {"departement": "Loir-et-Cher", "commune": "Chissay-en-Touraine", "uic": "0087574848", "segment_drg": "c", "region": "Centre", "nombre_plateformes": "1", "niveau_de_service": "1", "wgs_84": [47.3349004, 1.1333044], "intitule_gare": "Chissay-en-Touraine", "code_postal": "41400"}, "geometry": {"type": "Point", "coordinates": [1.1333044, 47.3349004]}, "record_timestamp": "2015-11-20T13:45:26+01:00"},{"datasetid": "referentiel-gares-voyageurs", "recordid": "6d0690d33bdeb51a82568fc2ba1605d1f9ab269d", "fields": {"departement": "Loir-et-Cher", "commune": "Vend\u00f4me", "uic": "0087574558", "segment_drg": "c", "region": "Centre", "nombre_plateformes": "1", "niveau_de_service": "1", "wgs_84": [47.8021498, 1.0678728], "intitule_gare": "Vend\u00f4me", "code_postal": "41100"}, "geometry": {"type": "Point", "coordinates": [1.0678728, 47.8021498]}, "record_timestamp": "2015-11-20T13:45:26+01:00"},{"datasetid": "referentiel-gares-voyageurs", "recordid": "dae15dfe3f7b7b6a483850f597b546df3d01c1ea", "fields": {"departement": "Indre-et-Loire", "commune": "Noizay", "uic": "0087574368", "segment_drg": "c", "region": "Centre", "nombre_plateformes": "1", "niveau_de_service": "1", "wgs_84": [47.4096869, 0.8959456], "intitule_gare": "Noizay", "code_postal": "37210"}, "geometry": {"type": "Point", "coordinates": [0.8959456, 47.4096869]}, "record_timestamp": "2015-11-20T13:45:26+01:00"},{"datasetid": "referentiel-gares-voyageurs", "recordid": "06518ef8c1439fa4c0c5115ab524563201918746", "fields": {"departement": "Indre-et-Loire", "commune": "Amboise", "uic": "0087574343", "segment_drg": "b", "region": "Centre", "nombre_plateformes": "1", "niveau_de_service": "2", "wgs_84": [47.42148, 0.981299], "intitule_gare": "Amboise", "code_postal": "37400"}, "geometry": {"type": "Point", "coordinates": [0.981299, 47.42148]}, "record_timestamp": "2015-11-20T13:45:26+01:00"},{"datasetid": "referentiel-gares-voyageurs", "recordid": "342b99047a92cbcae16fc79ccff9367815d25448", "fields": {"departement": "Loiret", "commune": "Chaingy", "uic": "0087574111", "segment_drg": "c", "region": "Centre", "nombre_plateformes": "1", "niveau_de_service": "1", "wgs_84": [47.8770705, 1.782422], "intitule_gare": "Chaingy Fourneaux Plage", "code_postal": "45380"}, "geometry": {"type": "Point", "coordinates": [1.782422, 47.8770705]}, "record_timestamp": "2015-11-20T13:45:26+01:00"},{"datasetid": "referentiel-gares-voyageurs", "recordid": "d64a1f80f821a919164319b1cf326e0ed84a0c6f", "fields": {"departement": "Indre-et-Loire", "commune": "Chouz\u00e9-sur-Loire", "uic": "0087571794", "segment_drg": "b", "region": "Centre", "nombre_plateformes": "1", "niveau_de_service": "1", "wgs_84": [47.248836, 0.155648], "intitule_gare": "Port Boulet", "code_postal": "37800"}, "geometry": {"type": "Point", "coordinates": [0.155648, 47.248836]}, "record_timestamp": "2015-11-20T13:45:26+01:00"},{"datasetid": "referentiel-gares-voyageurs", "recordid": "8f41b33c68f903fa97f7eed7cd1e9abbea013ee8", "fields": {"departement": "Indre-et-Loire", "commune": "Chinon", "uic": "0087571687", "segment_drg": "b", "region": "Centre", "nombre_plateformes": "1", "niveau_de_service": "1", "wgs_84": [47.163047, 0.251538], "intitule_gare": "Chinon", "code_postal": "37500"}, "geometry": {"type": "Point", "coordinates": [0.251538, 47.163047]}, "record_timestamp": "2015-11-20T13:45:26+01:00"},{"datasetid": "referentiel-gares-voyageurs", "recordid": "7c765eeff7946fd9e10b5223369da1ef33eaa11f", "fields": {"departement": "Indre-et-Loire", "commune": "Cour\u00e7ay", "uic": "0087571448", "segment_drg": "c", "region": "Centre", "nombre_plateformes": "1", "niveau_de_service": "1", "wgs_84": [47.2377076, 0.867867], "intitule_gare": "Courcay - Tauxigny", "code_postal": "37310"}, "geometry": {"type": "Point", "coordinates": [0.867867, 47.2377076]}, "record_timestamp": "2015-11-20T13:45:26+01:00"},{"datasetid": "referentiel-gares-voyageurs", "recordid": "aa5de5bde232a87c8cc3879550fd9c3289bea651", "fields": {"departement": "Indre-et-Loire", "commune": "Cormery", "uic": "0087571430", "segment_drg": "b", "region": "Centre", "nombre_plateformes": "1", "niveau_de_service": "1", "wgs_84": [47.26254, 0.833953], "intitule_gare": "Cormery", "code_postal": "37320"}, "geometry": {"type": "Point", "coordinates": [0.833953, 47.26254]}, "record_timestamp": "2015-11-20T13:45:26+01:00"},{"datasetid": "referentiel-gares-voyageurs", "recordid": "d0404f720b794b2f9b22d111d0021a2d80b17d45", "fields": {"departement": "Indre-et-Loire", "commune": "Esvres", "uic": "0087571422", "segment_drg": "c", "region": "Centre", "nombre_plateformes": "1", "niveau_de_service": "1", "wgs_84": [47.2841016, 0.7816519], "intitule_gare": "Esvres sur Indre", "code_postal": "37320"}, "geometry": {"type": "Point", "coordinates": [0.7816519, 47.2841016]}, "record_timestamp": "2015-11-20T13:45:26+01:00"},{"datasetid": "referentiel-gares-voyageurs", "recordid": "eab433f0f9a278f111f5234b9624af1d9d7d67e0", "fields": {"departement": "Puy-de-D\u00f4me", "commune": "Aulnat", "uic": "0087562421", "segment_drg": "c", "region": "Auvergne", "nombre_plateformes": "1", "niveau_de_service": "1", "wgs_84": [45.7920571, 3.1614332], "intitule_gare": "Aulnat A\u00e9roport", "code_postal": "63510"}, "geometry": {"type": "Point", "coordinates": [3.1614332, 45.7920571]}, "record_timestamp": "2015-11-20T13:45:26+01:00"},{"datasetid": "referentiel-gares-voyageurs", "recordid": "bf345ba529dc030239418a9ca617fe40216c3ac7", "fields": {"departement": "Ni\u00e8vre", "commune": "Mesves-sur-Loire", "uic": "0087559070", "segment_drg": "c", "region": "Bourgogne", "nombre_plateformes": "1", "niveau_de_service": "1", "wgs_84": [47.0068974, 3.1636746], "intitule_gare": "Nevers le Banlay", "code_postal": "58000"}, "geometry": {"type": "Point", "coordinates": [3.1636746, 47.0068974]}, "record_timestamp": "2015-11-20T13:45:26+01:00"},{"datasetid": "referentiel-gares-voyageurs", "recordid": "ecfa1c577c79018f1bf2536de615b9a71f88d417", "fields": {"departement": "Hauts-de-Seine", "commune": "Antony", "uic": "0087546317", "code_postal": "92160", "region": "\u00cele-de-France", "nombre_plateformes": "1", "segment_drg": "b", "wgs_84": [48.748143, 2.3126207], "intitule_gare": "Chemin d'Antony"}, "geometry": {"type": "Point", "coordinates": [2.3126207, 48.748143]}, "record_timestamp": "2015-11-20T13:45:26+01:00"},{"datasetid": "referentiel-gares-voyageurs", "recordid": "3cf40e6c3a0f189deee2fcabcd1b47f2d24f4067", "fields": {"departement": "Val-de-Marne", "commune": "Rungis", "uic": "0087546291", "code_postal": "94150", "region": "\u00cele-de-France", "nombre_plateformes": "1", "segment_drg": "b", "wgs_84": [48.74032, 2.35298], "intitule_gare": "Rungis la Fraternelle"}, "geometry": {"type": "Point", "coordinates": [2.35298, 48.74032]}, "record_timestamp": "2015-11-20T13:45:26+01:00"},{"datasetid": "referentiel-gares-voyageurs", "recordid": "a08e0c0612bbab35532ac90700555056cfce26dd", "fields": {"departement": "Eure-et-Loir", "commune": "Bonneval", "uic": "0087545731", "segment_drg": "c", "region": "Centre", "nombre_plateformes": "1", "niveau_de_service": "1", "wgs_84": [48.1862958, 1.3861845], "intitule_gare": "Bonneval", "code_postal": "28800"}, "geometry": {"type": "Point", "coordinates": [1.3861845, 48.1862958]}, "record_timestamp": "2015-11-20T13:45:26+01:00"},{"datasetid": "referentiel-gares-voyageurs", "recordid": "94526911722b0587f3cbacc9ea87bd15cdafcc66", "fields": {"departement": "Essonne", "commune": "Dourdan", "uic": "0087545525", "code_postal": "91410", "region": "\u00cele-de-France", "nombre_plateformes": "1", "segment_drg": "b", "wgs_84": [48.533466, 2.009643], "intitule_gare": "Dourdan"}, "geometry": {"type": "Point", "coordinates": [2.009643, 48.533466]}, "record_timestamp": "2015-11-20T13:45:26+01:00"},{"datasetid": "referentiel-gares-voyageurs", "recordid": "4c00dd134c477ce6c0adac0a805a00c9edf4086b", "fields": {"departement": "Essonne", "commune": "Breuillet", "uic": "0087545483", "code_postal": "91650", "region": "\u00cele-de-France", "nombre_plateformes": "1", "segment_drg": "b", "wgs_84": [48.577228, 2.191721], "intitule_gare": "Breuillet - Bruy\u00e8res-le-Ch\u00e2tel"}, "geometry": {"type": "Point", "coordinates": [2.191721, 48.577228]}, "record_timestamp": "2015-11-20T13:45:26+01:00"},{"datasetid": "referentiel-gares-voyageurs", "recordid": "ea58dd315a4e15fc85848b33f80cd0732a7aa140", "fields": {"departement": "Essonne", "commune": "\u00c9tampes", "uic": "0087545350", "code_postal": "91150", "region": "\u00cele-de-France", "nombre_plateformes": "1", "segment_drg": "b", "wgs_84": [48.42747, 2.145401], "intitule_gare": "Saint-Martin d'\u00c9tampes"}, "geometry": {"type": "Point", "coordinates": [2.145401, 48.42747]}, "record_timestamp": "2015-11-20T13:45:26+01:00"},{"datasetid": "referentiel-gares-voyageurs", "recordid": "7f892de290f692e12946ace0bcb3ba463641d03d", "fields": {"departement": "Val-de-Marne", "commune": "Ivry-sur-Seine", "uic": "0087545301", "code_postal": "94200", "region": "\u00cele-de-France", "nombre_plateformes": "1", "segment_drg": "b", "wgs_84": [48.814371, 2.39099], "intitule_gare": "Ivry-sur-Seine"}, "geometry": {"type": "Point", "coordinates": [2.39099, 48.814371]}, "record_timestamp": "2015-11-20T13:45:26+01:00"},{"datasetid": "referentiel-gares-voyageurs", "recordid": "50acf5d64692f967db22b8954f030a1b848f5d26", "fields": {"departement": "Val-de-Marne", "commune": "Villeneuve-le-Roi", "uic": "0087545277", "code_postal": "94290", "region": "\u00cele-de-France", "nombre_plateformes": "1", "segment_drg": "b", "wgs_84": [48.739908, 2.426084], "intitule_gare": "Villeneuve-le-Roi"}, "geometry": {"type": "Point", "coordinates": [2.426084, 48.739908]}, "record_timestamp": "2015-11-20T13:45:26+01:00"},{"datasetid": "referentiel-gares-voyageurs", "recordid": "c266e8a4760687254ed6424ce390ce7604b70ee3", "fields": {"departement": "Essonne", "commune": "Monnerville", "uic": "0087545111", "code_postal": "91930", "region": "\u00cele-de-France", "nombre_plateformes": "1", "segment_drg": "c", "wgs_84": [48.3484915, 2.0320595], "intitule_gare": "Monnerville"}, "geometry": {"type": "Point", "coordinates": [2.0320595, 48.3484915]}, "record_timestamp": "2015-11-20T13:45:26+01:00"},{"datasetid": "referentiel-gares-voyageurs", "recordid": "c0858df37d959724a9f93436dd6d40ded7c02fca", "fields": {"departement": "Loir-et-Cher", "commune": "Lamotte-Beuvron", "uic": "0087543140", "segment_drg": "b", "region": "Centre", "nombre_plateformes": "1", "niveau_de_service": "1", "wgs_84": [47.593898, 2.022499], "intitule_gare": "Lamotte-Beuvron", "code_postal": "41600"}, "geometry": {"type": "Point", "coordinates": [2.022499, 47.593898]}, "record_timestamp": "2015-11-20T13:45:26+01:00"},{"datasetid": "referentiel-gares-voyageurs", "recordid": "742f80815bdc3dc602bf2f21f55efed58556af21", "fields": {"departement": "Loiret", "commune": "Saint-Cyr-en-Val", "uic": "0087543116", "segment_drg": "c", "region": "Centre", "nombre_plateformes": "1", "niveau_de_service": "1", "wgs_84": [47.8192, 1.9476045], "intitule_gare": "Saint-Cyr-en-Val la Source", "code_postal": "45590"}, "geometry": {"type": "Point", "coordinates": [1.9476045, 47.8192]}, "record_timestamp": "2015-11-20T13:45:26+01:00"},{"datasetid": "referentiel-gares-voyageurs", "recordid": "246353b5d2f09d52d203970ea6f840da7b578333", "fields": {"departement": "Loiret", "commune": "Artenay", "uic": "0087543058", "segment_drg": "c", "region": "Centre", "nombre_plateformes": "1", "niveau_de_service": "1", "wgs_84": [48.0808761, 1.8833705], "intitule_gare": "Artenay", "code_postal": "45410"}, "geometry": {"type": "Point", "coordinates": [1.8833705, 48.0808761]}, "record_timestamp": "2015-11-20T13:45:26+01:00"},{"datasetid": "referentiel-gares-voyageurs", "recordid": "1e6b9b732bfa88a96d7ec10ae477ad317394596c", "fields": {"departement": "Gironde", "commune": "Saint-Andr\u00e9-de-Cubzac", "uic": "0087491241", "segment_drg": "b", "region": "Aquitaine", "nombre_plateformes": "1", "niveau_de_service": "1", "wgs_84": [44.991255, -0.440479], "intitule_gare": "Saint-Andr\u00e9-de-Cubzac", "code_postal": "33240"}, "geometry": {"type": "Point", "coordinates": [-0.440479, 44.991255]}, "record_timestamp": "2015-11-20T13:45:26+01:00"},{"datasetid": "referentiel-gares-voyageurs", "recordid": "146b82bb6442f5fc989fe89193d2d5a6e31f552f", "fields": {"departement": "Gironde", "commune": "Gauriaguet", "uic": "0087491225", "segment_drg": "c", "region": "Aquitaine", "nombre_plateformes": "1", "niveau_de_service": "1", "wgs_84": [45.0542936, -0.3992689], "intitule_gare": "Gauriaguet", "code_postal": "33240"}, "geometry": {"type": "Point", "coordinates": [-0.3992689, 45.0542936]}, "record_timestamp": "2015-11-20T13:45:26+01:00"},{"datasetid": "referentiel-gares-voyageurs", "recordid": "23b4484464a15c8f334b8b6165bcd9e0f05c19ee", "fields": {"departement": "Charente-Maritime", "commune": "Bussac-For\u00eat", "uic": "0087491191", "segment_drg": "c", "region": "Poitou-Charentes", "nombre_plateformes": "1", "niveau_de_service": "1", "wgs_84": [45.211928, -0.3682457], "intitule_gare": "Bussac", "code_postal": "17100"}, "geometry": {"type": "Point", "coordinates": [-0.3682457, 45.211928]}, "record_timestamp": "2015-11-20T13:45:26+01:00"},{"datasetid": "referentiel-gares-voyageurs", "recordid": "d5b1729f0dbc15388b15ef876765ad594101552a", "fields": {"departement": "Charente-Maritime", "commune": "Montendre", "uic": "0087491183", "segment_drg": "c", "region": "Poitou-Charentes", "nombre_plateformes": "1", "niveau_de_service": "1", "wgs_84": [45.2805457, -0.3961726], "intitule_gare": "Montendre", "code_postal": "17130"}, "geometry": {"type": "Point", "coordinates": [-0.3961726, 45.2805457]}, "record_timestamp": "2015-11-20T13:45:26+01:00"},{"datasetid": "referentiel-gares-voyageurs", "recordid": "5f97e9b6b91e7d2d4f0db92d3e3dcf66a9caf2be", "fields": {"departement": "Charente-Maritime", "commune": "Jonzac", "uic": "0087491142", "segment_drg": "c", "region": "Poitou-Charentes", "nombre_plateformes": "1", "niveau_de_service": "1", "wgs_84": [45.4387456, -0.44164], "intitule_gare": "Jonzac", "code_postal": "17500"}, "geometry": {"type": "Point", "coordinates": [-0.44164, 45.4387456]}, "record_timestamp": "2015-11-20T13:45:26+01:00"},{"datasetid": "referentiel-gares-voyageurs", "recordid": "68613114554826ea26aa7dca9d585444e6208a68", "fields": {"departement": "Charente-Maritime", "commune": "Taillebourg", "uic": "0087491043", "segment_drg": "c", "region": "Poitou-Charentes", "nombre_plateformes": "1", "niveau_de_service": "1", "wgs_84": [45.8305696, -0.6451123], "intitule_gare": "Taillebourg", "code_postal": "17350"}, "geometry": {"type": "Point", "coordinates": [-0.6451123, 45.8305696]}, "record_timestamp": "2015-11-20T13:45:26+01:00"},{"datasetid": "referentiel-gares-voyageurs", "recordid": "9eed7877d7163633fcd06083ad0cba8e3c2db444", "fields": {"departement": "Vend\u00e9e", "commune": "Pouzauges", "uic": "0087487314", "segment_drg": "c", "region": "Pays de la Loire", "nombre_plateformes": "1", "niveau_de_service": "1", "wgs_84": [46.7523536, -0.8146784], "intitule_gare": "Pouzauges", "code_postal": "85700"}, "geometry": {"type": "Point", "coordinates": [-0.8146784, 46.7523536]}, "record_timestamp": "2015-11-20T13:45:26+01:00"},{"datasetid": "referentiel-gares-voyageurs", "recordid": "b497f8f51e3e3ed424b985c05537094235ea4d23", "fields": {"departement": "Deux-S\u00e8vres", "commune": "Cerizay", "uic": "0087487280", "segment_drg": "c", "region": "Poitou-Charentes", "nombre_plateformes": "1", "niveau_de_service": "1", "wgs_84": [46.8176878, -0.6689931], "intitule_gare": "Cerizay", "code_postal": "79140"}, "geometry": {"type": "Point", "coordinates": [-0.6689931, 46.8176878]}, "record_timestamp": "2015-11-20T13:45:26+01:00"},{"datasetid": "referentiel-gares-voyageurs", "recordid": "9db082b3c544b16182df927ee7105477bd105b9a", "fields": {"departement": "Maine-et-Loire", "commune": "Torfou", "uic": "0087486894", "segment_drg": "c", "region": "Pays de la Loire", "nombre_plateformes": "1", "niveau_de_service": "1", "wgs_84": [47.0331153, -1.1173797], "intitule_gare": "Torfou", "code_postal": "49660"}, "geometry": {"type": "Point", "coordinates": [-1.1173797, 47.0331153]}, "record_timestamp": "2015-11-20T13:45:26+01:00"},{"datasetid": "referentiel-gares-voyageurs", "recordid": "55d618d8e27c940fad7d74d0be7c489ba0bdcccd", "fields": {"departement": "Deux-S\u00e8vres", "commune": "Mothe-Saint-H\u00e9ray", "uic": "0087485508", "segment_drg": "c", "region": "Poitou-Charentes", "nombre_plateformes": "1", "niveau_de_service": "1", "wgs_84": [46.3807592, -0.1298415], "intitule_gare": "La Mothe-Saint-H\u00e9ray", "code_postal": "79800"}, "geometry": {"type": "Point", "coordinates": [-0.1298415, 46.3807592]}, "record_timestamp": "2015-11-20T13:45:26+01:00"},{"datasetid": "referentiel-gares-voyageurs", "recordid": "ac989dec995217446024643476c9fa3e701abbf2", "fields": {"departement": "Deux-S\u00e8vres", "commune": "Fors", "uic": "0087485326", "segment_drg": "c", "region": "Poitou-Charentes", "nombre_plateformes": "1", "niveau_de_service": "1", "wgs_84": [46.2345203, -0.4069449], "intitule_gare": "Fors", "code_postal": "79230"}, "geometry": {"type": "Point", "coordinates": [-0.4069449, 46.2345203]}, "record_timestamp": "2015-11-20T13:45:26+01:00"},{"datasetid": "referentiel-gares-voyageurs", "recordid": "f10b7fccce527465b5109eafc6a727e4b8c17791", "fields": {"departement": "Deux-S\u00e8vres", "commune": "Prin-Deyran\u00e7on", "uic": "0087485268", "segment_drg": "c", "region": "Poitou-Charentes", "nombre_plateformes": "1", "niveau_de_service": "1", "wgs_84": [46.2190177, -0.6365007], "intitule_gare": "Prin-Deyran\u00e7on", "code_postal": "79210"}, "geometry": {"type": "Point", "coordinates": [-0.6365007, 46.2190177]}, "record_timestamp": "2015-11-20T13:45:26+01:00"},{"datasetid": "referentiel-gares-voyageurs", "recordid": "39bc21907aa28290aa89b071ae18086a5c1c5701", "fields": {"departement": "Charente-Maritime", "commune": "Tonnay-Charente", "uic": "0087485151", "segment_drg": "c", "region": "Poitou-Charentes", "nombre_plateformes": "1", "niveau_de_service": "1", "wgs_84": [45.9433989, -0.8978981], "intitule_gare": "Tonnay-Charente", "code_postal": "17430"}, "geometry": {"type": "Point", "coordinates": [-0.8978981, 45.9433989]}, "record_timestamp": "2015-11-20T13:45:26+01:00"},{"datasetid": "referentiel-gares-voyageurs", "recordid": "85405de6a844476e56e7d16d540ed1dd0619efac", "fields": {"departement": "Charente-Maritime", "commune": "Saint-Laurent-de-la-Pr\u00e9e", "uic": "0087485136", "segment_drg": "c", "region": "Poitou-Charentes", "nombre_plateformes": "1", "niveau_de_service": "1", "wgs_84": [45.9930002, -1.0274305], "intitule_gare": "Saint-Laurent-de-la-Pr\u00e9e - Fouras", "code_postal": "17450"}, "geometry": {"type": "Point", "coordinates": [-1.0274305, 45.9930002]}, "record_timestamp": "2015-11-20T13:45:26+01:00"},{"datasetid": "referentiel-gares-voyageurs", "recordid": "da28c7358adf6562e66607528fe7196978c9bafa", "fields": {"departement": "Loire-Atlantique", "commune": "Varades", "uic": "0087484386", "segment_drg": "c", "region": "Pays de la Loire", "nombre_plateformes": "1", "niveau_de_service": "1", "wgs_84": [47.3744471, -1.019712], "intitule_gare": "Varades - Saint-Florent-le-Vieil", "code_postal": "44370"}, "geometry": {"type": "Point", "coordinates": [-1.019712, 47.3744471]}, "record_timestamp": "2015-11-20T13:45:26+01:00"},{"datasetid": "referentiel-gares-voyageurs", "recordid": "f646e7966d8d83b872d1ee47235294589bba6555", "fields": {"departement": "Maine-et-Loire", "commune": "Chalonnes-sur-Loire", "uic": "0087484204", "segment_drg": "b", "region": "Pays de la Loire", "nombre_plateformes": "1", "niveau_de_service": "1", "wgs_84": [47.34306, -0.74306], "intitule_gare": "Chalonnes", "code_postal": "49290"}, "geometry": {"type": "Point", "coordinates": [-0.74306, 47.34306]}, "record_timestamp": "2015-11-20T13:45:26+01:00"},{"datasetid": "referentiel-gares-voyageurs", "recordid": "a4e24e0c523387208b7417d310f988a440143769", "fields": {"departement": "Maine-et-Loire", "commune": "Tierc\u00e9", "uic": "0087484147", "segment_drg": "b", "region": "Pays de la Loire", "nombre_plateformes": "1", "niveau_de_service": "1", "wgs_84": [47.617532, -0.469347], "intitule_gare": "Tierc\u00e9", "code_postal": "49125"}, "geometry": {"type": "Point", "coordinates": [-0.469347, 47.617532]}, "record_timestamp": "2015-11-20T13:45:26+01:00"},{"datasetid": "referentiel-gares-voyageurs", "recordid": "e8bac211212eef0f5c7f9bd6fe856120627695e8", "fields": {"departement": "Loire-Atlantique", "commune": "Savenay", "uic": "0087481838", "segment_drg": "b", "region": "Pays de la Loire", "nombre_plateformes": "1", "niveau_de_service": "2", "wgs_84": [47.35859, -1.950957], "intitule_gare": "Savenay", "code_postal": "44260"}, "geometry": {"type": "Point", "coordinates": [-1.950957, 47.35859]}, "record_timestamp": "2015-11-20T13:45:26+01:00"},{"datasetid": "referentiel-gares-voyageurs", "recordid": "e3d5d28b4771e3605d4142fdb21c591cb6ef92d7", "fields": {"departement": "Loire-Atlantique", "commune": "Pouliguen", "uic": "0087481762", "segment_drg": "c", "region": "Pays de la Loire", "nombre_plateformes": "1", "niveau_de_service": "1", "wgs_84": [47.2825404, -2.4331446], "intitule_gare": "Le Pouliguen", "code_postal": "44510"}, "geometry": {"type": "Point", "coordinates": [-2.4331446, 47.2825404]}, "record_timestamp": "2015-11-20T13:45:26+01:00"},{"datasetid": "referentiel-gares-voyageurs", "recordid": "6860794af1a1c80088a1d50c8a4211114c81c33a", "fields": {"departement": "Loire-Atlantique", "commune": "Baule-Escoublac", "uic": "0087481754", "segment_drg": "a", "region": "Pays de la Loire", "nombre_plateformes": "1", "niveau_de_service": "2", "wgs_84": [47.28869, -2.389102], "intitule_gare": "La Baule-Escoublac", "code_postal": "44500"}, "geometry": {"type": "Point", "coordinates": [-2.389102, 47.28869]}, "record_timestamp": "2015-11-20T13:45:26+01:00"},