[{"name":"gare de La Villetertre","links":[],"coord":{"lat":"49.202478","lon":"1.920481"},"label":"gare de La Villetertre (Lavilletertre)","administrative_regions":[{"insee":"60356","name":"Lavilletertre","level":8,"coord":{"lat":"49.196648","lon":"1.930636"},"label":"Lavilletertre (60240)","id":"admin:531619extern","zip_code":"60240"}],"timezone":"Europe/Paris","id":"stop_area:OCE:SA:87381202","fields":{"departement":"Oise","commune":"Lavilletertre","uic":"0087381202","segment_drg":"c","region":"Picardie","nombre_plateformes":"1","niveau_de_service":"1","wgs_84":[49.2024666,1.9206361],"intitule_gare":"Lavilletertre","code_postal":"60240"}},{"name":"gare de Asnières","links":[],"coord":{"lat":"48.90578","lon":"2.283341"},"label":"gare de Asnières (Asnières-sur-Seine)","administrative_regions":[{"insee":"92004","name":"Asnières-sur-Seine","level":8,"coord":{"lat":"48.91058","lon":"2.289019"},"label":"Asnières-sur-Seine (92600)","id":"admin:91641extern","zip_code":"92600"}],"timezone":"Europe/Paris","id":"stop_area:OCE:SA:87381137","fields":{"departement":"Hauts-de-Seine","commune":"Asnières-sur-Seine","uic":"0087381137","code_postal":"92600","region":"Île-de-France","nombre_plateformes":"1","segment_drg":"b","wgs_84":[48.9058,2.28324],"intitule_gare":"Asnières-sur-Seine"}},{"name":"gare de Colombes","links":[],"coord":{"lat":"48.923265","lon":"2.259552"},"label":"gare de Colombes (Colombes)","administrative_regions":[{"insee":"92025","name":"Colombes","level":8,"coord":{"lat":"48.922787","lon":"2.254357"},"label":"Colombes (92700)","id":"admin:91738extern","zip_code":"92700"}],"timezone":"Europe/Paris","id":"stop_area:OCE:SA:87381087","fields":{"departement":"Hauts-de-Seine","commune":"Colombes","uic":"0087381087","code_postal":"92700","region":"Île-de-France","nombre_plateformes":"1","segment_drg":"b","wgs_84":[48.92383,2.25939],"intitule_gare":"Colombes"}},{"name":"gare de Avenue-Foch","links":[],"coord":{"lat":"48.871832","lon":"2.276332"},"label":"gare de Avenue-Foch (Paris)","administrative_regions":[{"insee":"75116","name":"Paris 16e Arrondissement","level":9,"coord":{"lat":"48.863171","lon":"2.275764"},"label":"Paris 16e Arrondissement (75016-75116)","id":"admin:9517extern","zip_code":"75016;75116"},{"insee":"75056","name":"Paris","level":8,"coord":{"lat":"48.856491","lon":"2.352156"},"label":"Paris (75001-75116)","id":"admin:7444extern","zip_code":"75001;75116"}],"timezone":"Europe/Paris","id":"stop_area:OCE:SA:87381038","fields":{"departement":"Paris","commune":"Paris","uic":"0087381038","code_postal":"75016","region":"Île-de-France","nombre_plateformes":"1","segment_drg":"b","wgs_84":[48.870971,2.2756167],"intitule_gare":"Avenue Foch"}},{"name":"gare de Les Ramassiers","links":[],"coord":{"lat":"43.602346","lon":"1.352906"},"label":"gare de Les Ramassiers (Colomiers)","administrative_regions":[{"insee":"31149","name":"Colomiers","level":8,"coord":{"lat":"43.612099","lon":"1.328214"},"label":"Colomiers (31770)","id":"admin:35078extern","zip_code":"31770"}],"timezone":"Europe/Paris","id":"stop_area:OCE:SA:87353581","fields":{"departement":"Haute-Garonne","commune":"Colomiers","uic":"0087353581","segment_drg":"c","region":"Midi-Pyrénées","nombre_plateformes":"1","niveau_de_service":"1","wgs_84":[43.6024594,1.3528032],"intitule_gare":"Les Ramassiers","code_postal":"31000"}},{"name":"gare de Maurois","links":[],"coord":{"lat":"50.067496","lon":"3.456246"},"label":"gare de Maurois (Honnechy)","administrative_regions":[{"insee":"59311","name":"Honnechy","level":8,"coord":{"lat":"50.069195","lon":"3.471572"},"label":"Honnechy (59980)","id":"admin:55568extern","zip_code":"59980"}],"timezone":"Europe/Paris","id":"stop_area:OCE:SA:87345546","fields":{"departement":"Nord","commune":"Maurois","uic":"0087345546","segment_drg":"c","region":"Nord-Pas-de-Calais","nombre_plateformes":"1","niveau_de_service":"1","wgs_84":[50.0674506,3.4562554],"intitule_gare":"Maurois","code_postal":"59980"}},{"name":"gare de Brunémont","links":[],"coord":{"lat":"50.278251","lon":"3.145932"},"label":"gare de Brunémont (Brunémont)","administrative_regions":[{"insee":"59115","name":"Brunémont","level":8,"coord":{"lat":"50.271709","lon":"3.141399"},"label":"Brunémont (59151)","id":"admin:56035extern","zip_code":"59151"}],"timezone":"Europe/Paris","id":"stop_area:OCE:SA:87345439","fields":{"departement":"Nord","commune":"Brunémont","uic":"0087345439","segment_drg":"c","region":"Nord-Pas-de-Calais","nombre_plateformes":"1","niveau_de_service":"1","wgs_84":[50.2783197,3.1453509],"intitule_gare":"Brunémont","code_postal":"59151"}},{"name":"gare de Iwuy","links":[],"coord":{"lat":"50.225686","lon":"3.329906"},"label":"gare de Iwuy (Iwuy)","administrative_regions":[{"insee":"59322","name":"Iwuy","level":8,"coord":{"lat":"50.230995","lon":"3.323144"},"label":"Iwuy (59141)","id":"admin:55818extern","zip_code":"59141"}],"timezone":"Europe/Paris","id":"stop_area:OCE:SA:87345397","fields":{"departement":"Nord","commune":"Iwuy","uic":"0087345397","segment_drg":"c","region":"Nord-Pas-de-Calais","nombre_plateformes":"1","niveau_de_service":"1","wgs_84":[50.2255015,3.3298634],"intitule_gare":"Iwuy","code_postal":"59141"}},{"name":"gare de Pont à Vendin","links":[],"coord":{"lat":"50.471236","lon":"2.875191"},"label":"gare de Pont à Vendin (Pont-à-Vendin)","administrative_regions":[{"insee":"62666","name":"Pont-à-Vendin","level":8,"coord":{"lat":"50.473801","lon":"2.886269"},"label":"Pont-à-Vendin (62880)","id":"admin:178760extern","zip_code":"62880"}],"timezone":"Europe/Paris","id":"stop_area:OCE:SA:87345264","fields":{"departement":"Pas-de-Calais","commune":"Pont-à-Vendin","uic":"0087345264","segment_drg":"c","region":"Nord-Pas-de-Calais","nombre_plateformes":"1","niveau_de_service":"1","wgs_84":[50.4713812,2.8751938],"intitule_gare":"Pont-à-Vendin","code_postal":"62880"}},{"name":"gare de Ostricourt","links":[],"coord":{"lat":"50.445212","lon":"3.032049"},"label":"gare de Ostricourt (Ostricourt)","administrative_regions":[{"insee":"59452","name":"Ostricourt","level":8,"coord":{"lat":"50.455898","lon":"3.0328"},"label":"Ostricourt (59162)","id":"admin:57813extern","zip_code":"59162"}],"timezone":"Europe/Paris","id":"stop_area:OCE:SA:87345249","fields":{"departement":"Nord","commune":"Ostricourt","uic":"0087345249","segment_drg":"b","region":"Nord-Pas-de-Calais","nombre_plateformes":"1","niveau_de_service":"1","wgs_84":[50.44542,3.03244],"intitule_gare":"Ostricourt","code_postal":"59162"}},{"name":"gare de Hénin Beaumont","links":[],"coord":{"lat":"50.417005","lon":"2.952088"},"label":"gare de Hénin Beaumont (Hénin-Beaumont)","administrative_regions":[{"insee":"62427","name":"Hénin-Beaumont","level":8,"coord":{"lat":"50.4175","lon":"2.96052"},"label":"Hénin-Beaumont (62110)","id":"admin:1164845extern","zip_code":"62110"}],"timezone":"Europe/Paris","id":"stop_area:OCE:SA:87345157","fields":{"departement":"Pas-de-Calais","commune":"Hénin-Beaumont","uic":"0087345157","segment_drg":"b","region":"Nord-Pas-de-Calais","nombre_plateformes":"1","niveau_de_service":"1","wgs_84":[50.41706,2.95211],"intitule_gare":"Hénin-Beaumont","code_postal":"62110"}},{"name":"gare de Loos en Gohelle","links":[],"coord":{"lat":"50.437822","lon":"2.793277"},"label":"gare de Loos en Gohelle (Lens)","administrative_regions":[{"insee":"62498","name":"Lens","level":8,"coord":{"lat":"50.429173","lon":"2.83198"},"label":"Lens (62300)","id":"admin:1175586extern","zip_code":"62300"}],"timezone":"Europe/Paris","id":"stop_area:OCE:SA:87345033","fields":{"departement":"Pas-de-Calais","commune":"Loos-en-Gohelle","uic":"0087345033","segment_drg":"c","region":"Nord-Pas-de-Calais","nombre_plateformes":"1","niveau_de_service":"1","wgs_84":[50.4378798,2.7933955],"intitule_gare":"Loos-en-Gohelle","code_postal":"62750"}},{"name":"gare de Lens","links":[],"coord":{"lat":"50.426777","lon":"2.828222"},"label":"gare de Lens (Lens)","administrative_regions":[{"insee":"62498","name":"Lens","level":8,"coord":{"lat":"50.429173","lon":"2.83198"},"label":"Lens (62300)","id":"admin:1175586extern","zip_code":"62300"}],"timezone":"Europe/Paris","id":"stop_area:OCE:SA:87345025","fields":{"departement":"Pas-de-Calais","commune":"Lens","uic":"0087345025","segment_drg":"a","region":"Nord-Pas-de-Calais","nombre_plateformes":"1","niveau_de_service":"2","wgs_84":[50.426818,2.828254],"intitule_gare":"Lens","code_postal":"62300"}},{"name":"gare de Lourches","links":[],"coord":{"lat":"50.310213","lon":"3.343247"},"label":"gare de Lourches (Rœulx)","administrative_regions":[{"insee":"59504","name":"Rœulx","level":8,"coord":{"lat":"50.307529","lon":"3.334435"},"label":"Rœulx (59172)","id":"admin:56093extern","zip_code":"59172"}],"timezone":"Europe/Paris","id":"stop_area:OCE:SA:87343475","fields":{"departement":"Nord","commune":"Lourches","uic":"0087343475","segment_drg":"c","region":"Nord-Pas-de-Calais","nombre_plateformes":"1","niveau_de_service":"1","wgs_84":[50.3102834,3.3434016],"intitule_gare":"Lourches","code_postal":"59172"}},{"name":"gare de Denain","links":[],"coord":{"lat":"50.334493","lon":"3.388713"},"label":"gare de Denain (Denain)","administrative_regions":[{"insee":"59172","name":"Denain","level":8,"coord":{"lat":"50.329723","lon":"3.390164"},"label":"Denain (59220)","id":"admin:53825extern","zip_code":"59220"}],"timezone":"Europe/Paris","id":"stop_area:OCE:SA:87343459","fields":{"departement":"Nord","commune":"Denain","uic":"0087343459","segment_drg":"c","region":"Nord-Pas-de-Calais","nombre_plateformes":"1","niveau_de_service":"1","wgs_84":[50.3345415,3.388699],"intitule_gare":"Denain","code_postal":"59220"}},{"name":"gare de St-Amand-les-Eaux","links":[],"coord":{"lat":"50.443242","lon":"3.41939"},"label":"gare de St-Amand-les-Eaux (Saint-Amand-les-Eaux)","administrative_regions":[{"insee":"59526","name":"Saint-Amand-les-Eaux","level":8,"coord":{"lat":"50.447308","lon":"3.437448"},"label":"Saint-Amand-les-Eaux (59230)","id":"admin:53462extern","zip_code":"59230"}],"timezone":"Europe/Paris","id":"stop_area:OCE:SA:87343103","fields":{"departement":"Nord","commune":"Saint-Amand-les-Eaux","uic":"0087343103","segment_drg":"b","region":"Nord-Pas-de-Calais","nombre_plateformes":"1","niveau_de_service":"1","wgs_84":[50.44331,3.41952],"intitule_gare":"Saint-Amand-les-Eaux","code_postal":"59230"}},{"name":"gare de Vimy","links":[],"coord":{"lat":"50.374084","lon":"2.822432"},"label":"gare de Vimy (Vimy)","administrative_regions":[{"insee":"62861","name":"Vimy","level":8,"coord":{"lat":"50.373264","lon":"2.810793"},"label":"Vimy (62580)","id":"admin:1188473extern","zip_code":"62580"}],"timezone":"Europe/Paris","id":"stop_area:OCE:SA:87342576","fields":{"departement":"Pas-de-Calais","commune":"Vimy","uic":"0087342576","segment_drg":"c","region":"Nord-Pas-de-Calais","nombre_plateformes":"1","niveau_de_service":"1","wgs_84":[50.3732316,2.8229549],"intitule_gare":"Vimy","code_postal":"62580"}},{"name":"gare de Vis à Marles","links":[],"coord":{"lat":"50.505018","lon":"2.517246"},"label":"gare de Vis à Marles (Marles-les-Mines)","administrative_regions":[{"insee":"62555","name":"Marles-les-Mines","level":8,"coord":{"lat":"50.501949","lon":"2.506041"},"label":"Marles-les-Mines (62540)","id":"admin:1180676extern","zip_code":"62540"}],"timezone":"Europe/Paris","id":"stop_area:OCE:SA:87342535","fields":{"departement":"Pas-de-Calais","commune":"Marles-les-Mines","uic":"0087342535","segment_drg":"c","region":"Nord-Pas-de-Calais","nombre_plateformes":"1","niveau_de_service":"1","wgs_84":[50.5050115,2.5171137],"intitule_gare":"Vis à Marles","code_postal":"62156"}},{"name":"gare de La Bassée","links":[],"coord":{"lat":"50.528045","lon":"2.804921"},"label":"gare de La Bassée (La Bassée)","administrative_regions":[{"insee":"59051","name":"La Bassée","level":8,"coord":{"lat":"50.530975","lon":"2.802588"},"label":"La Bassée (59480)","id":"admin:58055extern","zip_code":"59480"}],"timezone":"Europe/Paris","id":"stop_area:OCE:SA:87342436","fields":{"departement":"Nord","commune":"Bassée","uic":"0087342436","segment_drg":"b","region":"Nord-Pas-de-Calais","nombre_plateformes":"1","niveau_de_service":"1","wgs_84":[50.52799,2.80482],"intitule_gare":"La Bassée","code_postal":"59480"}},{"name":"gare de Thiennes","links":[],"coord":{"lat":"50.652427","lon":"2.472698"},"label":"gare de Thiennes (Thiennes)","administrative_regions":[{"insee":"59590","name":"Thiennes","level":8,"coord":{"lat":"50.652718","lon":"2.469044"},"label":"Thiennes (59189)","id":"admin:89697extern","zip_code":"59189"}],"timezone":"Europe/Paris","id":"stop_area:OCE:SA:87342287","fields":{"departement":"Nord","commune":"Thiennes","uic":"0087342287","segment_drg":"c","region":"Nord-Pas-de-Calais","nombre_plateformes":"1","niveau_de_service":"1","wgs_84":[50.6523561,2.4729218],"intitule_gare":"Thiennes","code_postal":"59189"}},{"name":"gare de Aubigny en Artois","links":[],"coord":{"lat":"50.352935","lon":"2.592579"},"label":"gare de Aubigny en Artois (Aubigny-en-Artois)","administrative_regions":[{"insee":"62045","name":"Aubigny-en-Artois","level":8,"coord":{"lat":"50.35133","lon":"2.588831"},"label":"Aubigny-en-Artois (62690)","id":"admin:1121023extern","zip_code":"62690"}],"timezone":"Europe/Paris","id":"stop_area:OCE:SA:87342246","fields":{"departement":"Pas-de-Calais","commune":"Aubigny-en-Artois","uic":"0087342246","segment_drg":"c","region":"Nord-Pas-de-Calais","nombre_plateformes":"1","niveau_de_service":"1","wgs_84":[50.35297,2.5928045],"intitule_gare":"Aubigny-en-Artois","code_postal":"62690"}},{"name":"gare de Bully Grenay","links":[],"coord":{"lat":"50.448375","lon":"2.733175"},"label":"gare de Bully Grenay (Bully-les-Mines)","administrative_regions":[{"insee":"62186","name":"Bully-les-Mines","level":8,"coord":{"lat":"50.4464","lon":"2.719889"},"label":"Bully-les-Mines (62160)","id":"admin:1145295extern","zip_code":"62160"}],"timezone":"Europe/Paris","id":"stop_area:OCE:SA:87342105","fields":{"departement":"Pas-de-Calais","commune":"Bully-les-Mines","uic":"0087342105","segment_drg":"b","region":"Nord-Pas-de-Calais","nombre_plateformes":"1","niveau_de_service":"1","wgs_84":[50.44843,2.73317],"intitule_gare":"Bully - Grenay","code_postal":"62160"}},{"name":"gare de Boisleux","links":[],"coord":{"lat":"50.210413","lon":"2.771867"},"label":"gare de Boisleux (Boisleux-au-Mont)","administrative_regions":[{"insee":"62151","name":"Boisleux-au-Mont","level":8,"coord":{"lat":"50.210335","lon":"2.781497"},"label":"Boisleux-au-Mont (62175)","id":"admin:1143169extern","zip_code":"62175"}],"timezone":"Europe/Paris","id":"stop_area:OCE:SA:87342071","fields":{"departement":"Pas-de-Calais","commune":"Boisleux-au-Mont","uic":"0087342071","segment_drg":"c","region":"Nord-Pas-de-Calais","nombre_plateformes":"1","niveau_de_service":"1","wgs_84":[50.2104665,2.771855],"intitule_gare":"Boisleux","code_postal":"62175"}},{"name":"gare de Courcelles-le-Comte","links":[],"coord":{"lat":"50.169562","lon":"2.787922"},"label":"gare de Courcelles-le-Comte (Courcelles-le-Comte)","administrative_regions":[{"insee":"62248","name":"Courcelles-le-Comte","level":8,"coord":{"lat":"50.163612","lon":"2.774183"},"label":"Courcelles-le-Comte (62121)","id":"admin:1235971extern","zip_code":"62121"}],"timezone":"Europe/Paris","id":"stop_area:OCE:SA:87342063","fields":{"departement":"Pas-de-Calais","commune":"Courcelles-le-Comte","uic":"0087342063","segment_drg":"c","region":"Nord-Pas-de-Calais","nombre_plateformes":"1","niveau_de_service":"1","wgs_84":[50.1694124,2.7880351],"intitule_gare":"Courcelles-le-Comte","code_postal":"62121"}},{"name":"gare de Miraumont","links":[],"coord":{"lat":"50.094951","lon":"2.734401"},"label":"gare de Miraumont (Miraumont)","administrative_regions":[{"insee":"80549","name":"Miraumont","level":8,"coord":{"lat":"50.092628","lon":"2.730066"},"label":"Miraumont (80300)","id":"admin:1403080extern","zip_code":"80300"}],"timezone":"Europe/Paris","id":"stop_area:OCE:SA:87342030","fields":{"departement":"Somme","commune":"Miraumont","uic":"0087342030","segment_drg":"c","region":"Picardie","nombre_plateformes":"1","niveau_de_service":"1","wgs_84":[50.0958521,2.7344755],"intitule_gare":"Miraumont","code_postal":"80300"}},{"name":"gare de Arras","links":[],"coord":{"lat":"50.286827","lon":"2.781154"},"label":"gare de Arras (Arras)","administrative_regions":[{"insee":"62041","name":"Arras","level":8,"coord":{"lat":"50.291046","lon":"2.777221"},"label":"Arras (62000)","id":"admin:1121015extern","zip_code":"62000"}],"timezone":"Europe/Paris","id":"stop_area:OCE:SA:87342014","fields":{"departement":"Pas-de-Calais","commune":"Arras","uic":"0087342014","segment_drg":"a","region":"Nord-Pas-de-Calais","nombre_plateformes":"1","niveau_de_service":"2","wgs_84":[50.286673,2.781942],"intitule_gare":"Arras","code_postal":"62000"}},{"name":"gare de Hirson-Ecoles","links":[],"coord":{"lat":"49.929654","lon":"4.085419"},"label":"gare de Hirson-Ecoles (Hirson)","administrative_regions":[{"insee":"02381","name":"Hirson","level":8,"coord":{"lat":"49.92181","lon":"4.084347"},"label":"Hirson (2500)","id":"admin:150399extern","zip_code":"02500"}],"timezone":"Europe/Paris","id":"stop_area:OCE:SA:87324335","fields":{"departement":"Aisne","commune":"Hirson","uic":"0087324335","segment_drg":"c","region":"Picardie","nombre_plateformes":"1","niveau_de_service":"1","wgs_84":[49.9288321,4.0861491],"intitule_gare":"Hirson Écoles","code_postal":"02500"}},{"name":"gare de Avignon-TGV","links":[],"coord":{"lat":"43.921963","lon":"4.78616"},"label":"gare de Avignon-TGV (Avignon)","administrative_regions":[{"insee":"84007","name":"Avignon","level":8,"coord":{"lat":"43.949314","lon":"4.806032"},"label":"Avignon (84000)","id":"admin:102478extern","zip_code":"84000"}],"timezone":"Europe/Paris","id":"stop_area:OCE:SA:87318964","fields":{"departement":"Vaucluse","commune":"Avignon","uic":"0087318964 0087981902","segment_drg":"a c","region":"Provence-Alpes-Côte d'Azur","nombre_plateformes":"2","niveau_de_service":"3","wgs_84":[43.921586,4.786079],"intitule_gare":"Avignon TGV","code_postal":"84000"}},{"name":"gare de Marquise Rinxent","links":[],"coord":{"lat":"50.805659","lon":"1.729879"},"label":"gare de Marquise Rinxent (Rinxent)","administrative_regions":[{"insee":"62711","name":"Rinxent","level":8,"coord":{"lat":"50.8064","lon":"1.739969"},"label":"Rinxent (62720)","id":"admin:240359extern","zip_code":"62720"}],"timezone":"Europe/Paris","id":"stop_area:OCE:SA:87317339","fields":{"departement":"Pas-de-Calais","commune":"Rinxent","uic":"0087317339","segment_drg":"b","region":"Nord-Pas-de-Calais","nombre_plateformes":"1","niveau_de_service":"1","wgs_84":[50.8056635,1.72988],"intitule_gare":"Marquise - Rinxent","code_postal":"62250"}},{"name":"gare de Beaurainville","links":[],"coord":{"lat":"50.422971","lon":"1.89518"},"label":"gare de Beaurainville (Beaurainville)","administrative_regions":[{"insee":"62100","name":"Beaurainville","level":8,"coord":{"lat":"50.419655","lon":"1.903019"},"label":"Beaurainville (62990)","id":"admin:1122577extern","zip_code":"62990"}],"timezone":"Europe/Paris","id":"stop_area:OCE:SA:87317198","fields":{"departement":"Pas-de-Calais","commune":"Beaurainville","uic":"0087317198","segment_drg":"c","region":"Nord-Pas-de-Calais","nombre_plateformes":"1","niveau_de_service":"1","wgs_84":[50.422891,1.895345],"intitule_gare":"Beaurainville","code_postal":"62990"}},{"name":"gare de Montreuil sur Mer","links":[],"coord":{"lat":"50.466229","lon":"1.768893"},"label":"gare de Montreuil sur Mer (Montreuil)","administrative_regions":[{"insee":"62588","name":"Montreuil","level":8,"coord":{"lat":"50.463745","lon":"1.764228"},"label":"Montreuil (62170)","id":"admin:2622231extern","zip_code":"62170"}],"timezone":"Europe/Paris","id":"stop_area:OCE:SA:87317164","fields":{"departement":"Pas-de-Calais","commune":"Montreuil","uic":"0087317164","segment_drg":"c","region":"Nord-Pas-de-Calais","nombre_plateformes":"1","niveau_de_service":"1","wgs_84":[50.4661948,1.7691662],"intitule_gare":"Montreuil sur Mer","code_postal":"62170"}},{"name":"gare de Dannes Camiers","links":[],"coord":{"lat":"50.575861","lon":"1.614755"},"label":"gare de Dannes Camiers (Camiers)","administrative_regions":[{"insee":"62201","name":"Camiers","level":8,"coord":{"lat":"50.563801","lon":"1.61441"},"label":"Camiers (62176)","id":"admin:157630extern","zip_code":"62176"}],"timezone":"Europe/Paris","id":"stop_area:OCE:SA:87317081","fields":{"departement":"Pas-de-Calais","commune":"Camiers","uic":"0087317081","segment_drg":"c","region":"Nord-Pas-de-Calais","nombre_plateformes":"1","niveau_de_service":"1","wgs_84":[50.5759062,1.614825],"intitule_gare":"Dannes - Camiers","code_postal":"62187"}},{"name":"gare de Etaples Le Touquet","links":[],"coord":{"lat":"50.51673","lon":"1.642525"},"label":"gare de Etaples Le Touquet (Étaples)","administrative_regions":[{"insee":"62318","name":"Étaples","level":8,"coord":{"lat":"50.513897","lon":"1.63885"},"label":"Étaples (62630)","id":"admin:157543extern","zip_code":"62630"}],"timezone":"Europe/Paris","id":"stop_area:OCE:SA:87317065","fields":{"departement":"Pas-de-Calais","commune":"Étaples","uic":"0087317065","segment_drg":"b","region":"Nord-Pas-de-Calais","nombre_plateformes":"1","niveau_de_service":"2","wgs_84":[50.51686,1.64231],"intitule_gare":"Étaples - Le Touquet","code_postal":"62630"}},{"name":"gare de Feuquerolles","links":[],"coord":{"lat":"50.064897","lon":"1.605571"},"label":"gare de Feuquerolles (Feuquières-en-Vimeu)","administrative_regions":[{"insee":"80308","name":"Feuquières-en-Vimeu","level":8,"coord":{"lat":"50.060936","lon":"1.609548"},"label":"Feuquières-en-Vimeu (80210)","id":"admin:1259088extern","zip_code":"80210"}],"timezone":"Europe/Paris","id":"stop_area:OCE:SA:87316752","fields":{"departement":"Somme","commune":"Feuquières-en-Vimeu","uic":"0087316752","segment_drg":"c","region":"Picardie","nombre_plateformes":"1","niveau_de_service":"1","wgs_84":[50.0648443,1.605574],"intitule_gare":"Feuquerolles","code_postal":"80190"}},{"name":"gare de Acheux-Franleu","links":[],"coord":{"lat":"50.082629","lon":"1.657295"},"label":"gare de Acheux-Franleu (Chépy)","administrative_regions":[{"insee":"80190","name":"Chépy","level":8,"coord":{"lat":"50.062855","lon":"1.646873"},"label":"Chépy (80210)","id":"admin:418910extern","zip_code":"80210"}],"timezone":"Europe/Paris","id":"stop_area:OCE:SA:87316745","fields":{"departement":"Somme","commune":"Chépy","uic":"0087316745","segment_drg":"c","region":"Picardie","nombre_plateformes":"1","niveau_de_service":"1","wgs_84":[50.0826021,1.6574207],"intitule_gare":"Acheux - Franleu","code_postal":"80560"}},{"name":"gare de Pihen","links":[],"coord":{"lat":"50.872795","lon":"1.784627"},"label":"gare de Pihen (Pihen-lès-Guînes)","administrative_regions":[{"insee":"62657","name":"Pihen-lès-Guînes","level":8,"coord":{"lat":"50.870384","lon":"1.787441"},"label":"Pihen-lès-Guînes (62340)","id":"admin:286396extern","zip_code":"62340"}],"timezone":"Europe/Paris","id":"stop_area:OCE:SA:87316679","fields":{"departement":"Pas-de-Calais","commune":"Pihen-lès-Guînes","uic":"0087316679","segment_drg":"c","region":"Nord-Pas-de-Calais","nombre_plateformes":"1","niveau_de_service":"1","wgs_84":[50.8727855,1.7845632],"intitule_gare":"Pihen","code_postal":"62340"}},{"name":"gare de Dommartin-Remiencourt","links":[],"coord":{"lat":"49.799299","lon":"2.392573"},"label":"gare de Dommartin-Remiencourt (Dommartin)","administrative_regions":[{"insee":"80246","name":"Dommartin","level":8,"coord":{"lat":"49.800617","lon":"2.389568"},"label":"Dommartin (80440)","id":"admin:2667676extern","zip_code":"80440"}],"timezone":"Europe/Paris","id":"stop_area:OCE:SA:87316109","fields":{"departement":"Somme","commune":"Dommartin","uic":"0087316109","segment_drg":"c","region":"Picardie","nombre_plateformes":"1","niveau_de_service":"1","wgs_84":[49.7996523,2.3926625],"intitule_gare":"Dommartin - Remiencourt","code_postal":"80440"}},{"name":"gare de Blangy-sur-Bresle","links":[],"coord":{"lat":"49.932378","lon":"1.625646"},"label":"gare de Blangy-sur-Bresle (Blangy-sur-Bresle)","administrative_regions":[{"insee":"76101","name":"Blangy-sur-Bresle","level":8,"coord":{"lat":"49.932377","lon":"1.629683"},"label":"Blangy-sur-Bresle (76340)","id":"admin:1277291extern","zip_code":"76340"}],"timezone":"Europe/Paris","id":"stop_area:OCE:SA:87313809","fields":{"departement":"Seine-Maritime","commune":"Blangy-sur-Bresle","uic":"0087313809","segment_drg":"c","region":"Haute-Normandie","nombre_plateformes":"1","niveau_de_service":"1","wgs_84":[49.9326071,1.6259074],"intitule_gare":"Blangy-sur-Bresle","code_postal":"76340"}},{"name":"gare de Aumale","links":[],"coord":{"lat":"49.765135","lon":"1.756097"},"label":"gare de Aumale (Aumale)","administrative_regions":[{"insee":"76035","name":"Aumale","level":8,"coord":{"lat":"49.7705","lon":"1.754539"},"label":"Aumale (76390)","id":"admin:1940191extern","zip_code":"76390"}],"timezone":"Europe/Paris","id":"stop_area:OCE:SA:87313767","fields":{"departement":"Seine-Maritime","commune":"Aumale","uic":"0087313767","segment_drg":"c","region":"Haute-Normandie","nombre_plateformes":"1","niveau_de_service":"1","wgs_84":[49.7650371,1.7560425],"intitule_gare":"Aumale","code_postal":"76390"}},{"name":"gare de Grandvilliers","links":[],"coord":{"lat":"49.6594","lon":"1.938468"},"label":"gare de Grandvilliers (Grandvilliers)","administrative_regions":[{"insee":"60286","name":"Grandvilliers","level":8,"coord":{"lat":"49.664227","lon":"1.942814"},"label":"Grandvilliers (60210)","id":"admin:1231407extern","zip_code":"60210"}],"timezone":"Europe/Paris","id":"stop_area:OCE:SA:87313734","fields":{"departement":"Oise","commune":"Grandvilliers","uic":"0087313734","segment_drg":"c","region":"Picardie","nombre_plateformes":"1","niveau_de_service":"1","wgs_84":[49.6593779,1.9384836],"intitule_gare":"Grandvilliers","code_postal":"60210"}},{"name":"gare de St-Sulpice-Auteuil","links":[],"coord":{"lat":"49.347428","lon":"2.116472"},"label":"gare de St-Sulpice-Auteuil (Saint-Sulpice)","administrative_regions":[{"insee":"60598","name":"Saint-Sulpice","level":8,"coord":{"lat":"49.350521","lon":"2.122169"},"label":"Saint-Sulpice (60430)","id":"admin:164772extern","zip_code":"60430"}],"timezone":"Europe/Paris","id":"stop_area:OCE:SA:87313684","fields":{"departement":"Oise","commune":"Saint-Sulpice","uic":"0087313684","segment_drg":"b","region":"Picardie","nombre_plateformes":"1","niveau_de_service":"1","wgs_84":[49.3473824,2.1164133],"intitule_gare":"Saint-Sulpice - Auteuil","code_postal":"60430"}},{"name":"gare de Balagny-St-Epin","links":[],"coord":{"lat":"49.294293","lon":"2.34402"},"label":"gare de Balagny-St-Epin (Balagny-sur-Thérain)","administrative_regions":[{"insee":"60044","name":"Balagny-sur-Thérain","level":8,"coord":{"lat":"49.295753","lon":"2.334862"},"label":"Balagny-sur-Thérain (60250)","id":"admin:420215extern","zip_code":"60250"}],"timezone":"Europe/Paris","id":"stop_area:OCE:SA:87313569","fields":{"departement":"Oise","commune":"Balagny-sur-Thérain","uic":"0087313569","segment_drg":"c","region":"Picardie","nombre_plateformes":"1","niveau_de_service":"1","wgs_84":[49.2942448,2.3441977],"intitule_gare":"Balagny Saint-Épin","code_postal":"60250"}},{"name":"gare de Rémy (Oise)","links":[],"coord":{"lat":"49.433322","lon":"2.70573"},"label":"gare de Rémy (Oise) (Remy)","administrative_regions":[{"insee":"60531","name":"Remy","level":8,"coord":{"lat":"49.439838","lon":"2.70869"},"label":"Remy (60190)","id":"admin:269933extern","zip_code":"60190"}],"timezone":"Europe/Paris","id":"stop_area:OCE:SA:87313403","fields":{"departement":"Oise","commune":"Remy","uic":"0087313403","segment_drg":"c","region":"Picardie","nombre_plateformes":"1","niveau_de_service":"1","wgs_84":[49.4331452,2.7059434],"intitule_gare":"Rémy","code_postal":"60190"}},{"name":"gare de Poix-de-Picardie","links":[],"coord":{"lat":"49.777811","lon":"1.989845"},"label":"gare de Poix-de-Picardie (Poix-de-Picardie)","administrative_regions":[{"insee":"80630","name":"Poix-de-Picardie","level":8,"coord":{"lat":"49.774967","lon":"1.98185"},"label":"Poix-de-Picardie (80290)","id":"admin:1877580extern","zip_code":"80290"}],"timezone":"Europe/Paris","id":"stop_area:OCE:SA:87313395","fields":{"departement":"Somme","commune":"Poix-de-Picardie","uic":"0087313395","segment_drg":"c","region":"Picardie","nombre_plateformes":"1","niveau_de_service":"1","wgs_84":[49.7778561,1.9897767],"intitule_gare":"Poix-de-Picardie","code_postal":"80290"}},{"name":"gare de Clermont-de-l'Oise","links":[],"coord":{"lat":"49.385342","lon":"2.417225"},"label":"gare de Clermont-de-l'Oise (Clermont)","administrative_regions":[{"insee":"60157","name":"Clermont","level":8,"coord":{"lat":"49.381783","lon":"2.407911"},"label":"Clermont (60600)","id":"admin:165224extern","zip_code":"60600"}],"timezone":"Europe/Paris","id":"stop_area:OCE:SA:87313304","fields":{"departement":"Oise","commune":"Clermont","uic":"0087313304","segment_drg":"b","region":"Picardie","nombre_plateformes":"1","niveau_de_service":"2","wgs_84":[49.38531,2.41767],"intitule_gare":"Clermont de l'Oise","code_postal":"60600"}},{"name":"gare de Breteuil-Embranchement","links":[],"coord":{"lat":"49.626415","lon":"2.384739"},"label":"gare de Breteuil-Embranchement (Bacouël)","administrative_regions":[{"insee":"60039","name":"Bacouël","level":8,"coord":{"lat":"49.618187","lon":"2.385014"},"label":"Bacouël (60120)","id":"admin:963660extern","zip_code":"60120"}],"timezone":"Europe/Paris","id":"stop_area:OCE:SA:87313247","fields":{"departement":"Oise","commune":"Breteuil","uic":"0087313247","segment_drg":"c","region":"Picardie","nombre_plateformes":"1","niveau_de_service":"1","wgs_84":[49.626389,2.3845164],"intitule_gare":"Breteuil","code_postal":"60120"}},{"name":"gare de Ailly-sur-Noye","links":[],"coord":{"lat":"49.754411","lon":"2.364193"},"label":"gare de Ailly-sur-Noye (Ailly-sur-Noye)","administrative_regions":[{"insee":"80010","name":"Ailly-sur-Noye","level":8,"coord":{"lat":"49.758099","lon":"2.364566"},"label":"Ailly-sur-Noye (80250)","id":"admin:2958956extern","zip_code":"80250"}],"timezone":"Europe/Paris","id":"stop_area:OCE:SA:87313221","fields":{"departement":"Somme","commune":"Ailly-sur-Noye","uic":"0087313221","segment_drg":"b","region":"Picardie","nombre_plateformes":"1","niveau_de_service":"1","wgs_84":[49.75448,2.36419],"intitule_gare":"Ailly-sur-Noye","code_postal":"80250"}},{"name":"gare de Pont-Rémy","links":[],"coord":{"lat":"50.047344","lon":"1.899056"},"label":"gare de Pont-Rémy (Pont-Remy)","administrative_regions":[{"insee":"80635","name":"Pont-Remy","level":8,"coord":{"lat":"50.055775","lon":"1.901734"},"label":"Pont-Remy (80580)","id":"admin:1288755extern","zip_code":"80580"}],"timezone":"Europe/Paris","id":"stop_area:OCE:SA:87313130","fields":{"departement":"Somme","commune":"Pont-Remy","uic":"0087313130","segment_drg":"c","region":"Picardie","nombre_plateformes":"1","niveau_de_service":"1","wgs_84":[50.0472341,1.8988404],"intitule_gare":"Pont-Remy","code_postal":"80580"}},{"name":"gare de Longpré-Corps-Saints","links":[],"coord":{"lat":"50.011342","lon":"2.002804"},"label":"gare de Longpré-Corps-Saints (Longpré-les-Corps-Saints)","administrative_regions":[{"insee":"80488","name":"Longpré-les-Corps-Saints","level":8,"coord":{"lat":"50.013405","lon":"1.991743"},"label":"Longpré-les-Corps-Saints (80510)","id":"admin:1298955extern","zip_code":"80510"}],"timezone":"Europe/Paris","id":"stop_area:OCE:SA:87313122","fields":{"departement":"Somme","commune":"Longpré-les-Corps-Saints","uic":"0087313122","segment_drg":"b","region":"Picardie","nombre_plateformes":"1","niveau_de_service":"1","wgs_84":[50.01128,2.00277],"intitule_gare":"Longpré-les-Corps-Saints","code_postal":"80510"}},{"name":"gare de Corbie","links":[],"coord":{"lat":"49.9116","lon":"2.499683"},"label":"gare de Corbie (Corbie)","administrative_regions":[{"insee":"80212","name":"Corbie","level":8,"coord":{"lat":"49.908291","lon":"2.511072"},"label":"Corbie (80800)","id":"admin:114379extern","zip_code":"80800"}],"timezone":"Europe/Paris","id":"stop_area:OCE:SA:87313056","fields":{"departement":"Somme","commune":"Corbie","uic":"0087313056","segment_drg":"b","region":"Picardie","nombre_plateformes":"1","niveau_de_service":"1","wgs_84":[49.9116183,2.4996846],"intitule_gare":"Corbie","code_postal":"80800"}},{"name":"gare de St Hilaire","links":[],"coord":{"lat":"50.132015","lon":"3.913579"},"label":"gare de St Hilaire (Saint-Hilaire-sur-Helpe)","administrative_regions":[{"insee":"59534","name":"Saint-Hilaire-sur-Helpe","level":8,"coord":{"lat":"50.134651","lon":"3.903915"},"label":"Saint-Hilaire-sur-Helpe (59440)","id":"admin:55289extern","zip_code":"59440"}],"timezone":"Europe/Paris","id":"stop_area:OCE:SA:87297531","fields":{"departement":"Nord","commune":"Saint-Hilaire-sur-Helpe","uic":"0087297531","segment_drg":"c","region":"Nord-Pas-de-Calais","nombre_plateformes":"1","niveau_de_service":"1","wgs_84":[50.1319709,3.9140099],"intitule_gare":"Saint-Hilaire","code_postal":"59292"}},{"name":"gare de Barenton-Bugny","links":[],"coord":{"lat":"49.630655","lon":"3.655816"},"label":"gare de Barenton-Bugny (Barenton-Bugny)","administrative_regions":[{"insee":"02046","name":"Barenton-Bugny","level":8,"coord":{"lat":"49.633499","lon":"3.6524"},"label":"Barenton-Bugny (2000)","id":"admin:969262extern","zip_code":"02000"}],"timezone":"Europe/Paris","id":"stop_area:OCE:SA:87297291","fields":{"departement":"Aisne","commune":"Barenton-Bugny","uic":"0087297291","segment_drg":"c","region":"Picardie","nombre_plateformes":"1","niveau_de_service":"1","wgs_84":[49.6307907,3.6559914],"intitule_gare":"Barenton-Bugny","code_postal":"02000"}},{"name":"gare de Verneuil-sur-Serre","links":[],"coord":{"lat":"49.648668","lon":"3.667805"},"label":"gare de Verneuil-sur-Serre (Verneuil-sur-Serre)","administrative_regions":[{"insee":"02787","name":"Verneuil-sur-Serre","level":8,"coord":{"lat":"49.6492","lon":"3.67285"},"label":"Verneuil-sur-Serre (2000)","id":"admin:422688extern","zip_code":"02000"}],"timezone":"Europe/Paris","id":"stop_area:OCE:SA:87297119","fields":{"departement":"Aisne","commune":"Verneuil-sur-Serre","uic":"0087297119","segment_drg":"c","region":"Picardie","nombre_plateformes":"1","niveau_de_service":"1","wgs_84":[49.6486805,3.6677085],"intitule_gare":"Verneuil-sur-Serre","code_postal":"02000"}},{"name":"gare de Viry-Noureuil","links":[],"coord":{"lat":"49.627438","lon":"3.250225"},"label":"gare de Viry-Noureuil (Viry-Noureuil)","administrative_regions":[{"insee":"02820","name":"Viry-Noureuil","level":8,"coord":{"lat":"49.632221","lon":"3.243611"},"label":"Viry-Noureuil (2300)","id":"admin:153723extern","zip_code":"02300"}],"timezone":"Europe/Paris","id":"stop_area:OCE:SA:87297051","fields":{"departement":"Aisne","commune":"Viry-Noureuil","uic":"0087297051","segment_drg":"c","region":"Picardie","nombre_plateformes":"1","niveau_de_service":"1","wgs_84":[49.6274493,3.2503611],"intitule_gare":"Viry-Noureuil","code_postal":"02300"}},{"name":"gare de Flavy-le-Martel","links":[],"coord":{"lat":"49.718475","lon":"3.190772"},"label":"gare de Flavy-le-Martel (Flavy-le-Martel)","administrative_regions":[{"insee":"02315","name":"Flavy-le-Martel","level":8,"coord":{"lat":"49.712643","lon":"3.191557"},"label":"Flavy-le-Martel (2520)","id":"admin:2952303extern","zip_code":"02520"}],"timezone":"Europe/Paris","id":"stop_area:OCE:SA:87296871","fields":{"departement":"Aisne","commune":"Flavy-le-Martel","uic":"0087296871","segment_drg":"c","region":"Picardie","nombre_plateformes":"1","niveau_de_service":"1","wgs_84":[49.7187375,3.1905076],"intitule_gare":"Flavy-le-Martel","code_postal":"02520"}},{"name":"gare de Versigny","links":[],"coord":{"lat":"49.657467","lon":"3.43362"},"label":"gare de Versigny (Versigny)","administrative_regions":[{"insee":"02788","name":"Versigny","level":8,"coord":{"lat":"49.653332","lon":"3.436111"},"label":"Versigny (2800)","id":"admin:153711extern","zip_code":"02800"}],"timezone":"Europe/Paris","id":"stop_area:OCE:SA:87296608","fields":{"departement":"Aisne","commune":"Versigny","uic":"0087296608","segment_drg":"c","region":"Picardie","nombre_plateformes":"1","niveau_de_service":"1","wgs_84":[49.6574494,3.4335692],"intitule_gare":"Versigny","code_postal":"02800"}},{"name":"gare de Mennessis","links":[],"coord":{"lat":"49.691041","lon":"3.27195"},"label":"gare de Mennessis (Mennessis)","administrative_regions":[{"insee":"02474","name":"Mennessis","level":8,"coord":{"lat":"49.6936","lon":"3.27291"},"label":"Mennessis (2700)","id":"admin:2411900extern","zip_code":"02700"}],"timezone":"Europe/Paris","id":"stop_area:OCE:SA:87296434","fields":{"departement":"Aisne","commune":"Mennessis","uic":"0087296434","segment_drg":"c","region":"Picardie","nombre_plateformes":"1","niveau_de_service":"1","wgs_84":[49.6915989,3.2711145],"intitule_gare":"Mennessis","code_postal":"02700"}},{"name":"gare de Fresnoy-le-Grand","links":[],"coord":{"lat":"49.949752","lon":"3.432093"},"label":"gare de Fresnoy-le-Grand (Fresnoy-le-Grand)","administrative_regions":[{"insee":"02334","name":"Fresnoy-le-Grand","level":8,"coord":{"lat":"49.948055","lon":"3.418333"},"label":"Fresnoy-le-Grand (2230)","id":"admin:152765extern","zip_code":"02230"}],"timezone":"Europe/Paris","id":"stop_area:OCE:SA:87296293","fields":{"departement":"Aisne","commune":"Fresnoy-le-Grand","uic":"0087296293","segment_drg":"c","region":"Picardie","nombre_plateformes":"1","niveau_de_service":"1","wgs_84":[49.9501964,3.43268],"intitule_gare":"Fresnoy-le-Grand","code_postal":"02230"}},{"name":"gare de Vervins","links":[],"coord":{"lat":"49.829858","lon":"3.893457"},"label":"gare de Vervins (Vervins)","administrative_regions":[{"insee":"02789","name":"Vervins","level":8,"coord":{"lat":"49.833332","lon":"3.908537"},"label":"Vervins (2140)","id":"admin:153712extern","zip_code":"02140"}],"timezone":"Europe/Paris","id":"stop_area:OCE:SA:87296129","fields":{"departement":"Aisne","commune":"Vervins","uic":"0087296129","segment_drg":"c","region":"Picardie","nombre_plateformes":"1","niveau_de_service":"1","wgs_84":[49.8299236,3.8936313],"intitule_gare":"Vervins","code_postal":"02140"}},{"name":"gare de St Quentin","links":[],"coord":{"lat":"49.840028","lon":"3.296962"},"label":"gare de St Quentin (Saint-Quentin)","administrative_regions":[{"insee":"02691","name":"Saint-Quentin","level":8,"coord":{"lat":"49.84861","lon":"3.286388"},"label":"Saint-Quentin (2100)","id":"admin:153656extern","zip_code":"02100"}],"timezone":"Europe/Paris","id":"stop_area:OCE:SA:87296004","fields":{"departement":"Aisne","commune":"Saint-Quentin","uic":"0087296004","segment_drg":"b","region":"Picardie","nombre_plateformes":"1","niveau_de_service":"2","wgs_84":[49.8400482,3.2970089],"intitule_gare":"Saint-Quentin","code_postal":"02100"}},{"name":"gare de Le Quesnoy (Nord)","links":[],"coord":{"lat":"50.250214","lon":"3.645545"},"label":"gare de Le Quesnoy (Nord) (Le Quesnoy)","administrative_regions":[{"insee":"59481","name":"Le Quesnoy","level":8,"coord":{"lat":"50.247341","lon":"3.63645"},"label":"Le Quesnoy (59530)","id":"admin:54546extern","zip_code":"59530"}],"timezone":"Europe/Paris","id":"stop_area:OCE:SA:87295857","fields":{"departement":"Nord","commune":"Quesnoy","uic":"0087295857","segment_drg":"b","region":"Nord-Pas-de-Calais","nombre_plateformes":"1","niveau_de_service":"1","wgs_84":[50.25021,3.64552],"intitule_gare":"Le Quesnoy","code_postal":"59530"}},{"name":"gare de Leval","links":[],"coord":{"lat":"50.184549","lon":"3.83669"},"label":"gare de Leval (Leval)","administrative_regions":[{"insee":"59344","name":"Leval","level":8,"coord":{"lat":"50.178944","lon":"3.830675"},"label":"Leval (59620)","id":"admin:55055extern","zip_code":"59620"}],"timezone":"Europe/Paris","id":"stop_area:OCE:SA:87295790","fields":{"departement":"Nord","commune":"Leval","uic":"0087295790","segment_drg":"c","region":"Nord-Pas-de-Calais","nombre_plateformes":"1","niveau_de_service":"1","wgs_84":[50.1845311,3.8366811],"intitule_gare":"Leval","code_postal":"59620"}},{"name":"gare de Avesnelles","links":[],"coord":{"lat":"50.118495","lon":"3.948567"},"label":"gare de Avesnelles (Avesnelles)","administrative_regions":[{"insee":"59035","name":"Avesnelles","level":8,"coord":{"lat":"50.1077","lon":"3.94959"},"label":"Avesnelles (59440)","id":"admin:55399extern","zip_code":"59440"}],"timezone":"Europe/Paris","id":"stop_area:OCE:SA:87295725","fields":{"departement":"Nord","commune":"Avesnelles","uic":"0087295725","segment_drg":"c","region":"Nord-Pas-de-Calais","nombre_plateformes":"1","niveau_de_service":"1","wgs_84":[50.1185513,3.9485876],"intitule_gare":"Avesnelles","code_postal":"59440"}},{"name":"gare de Fourmies","links":[],"coord":{"lat":"50.015361","lon":"4.053626"},"label":"gare de Fourmies (Fourmies)","administrative_regions":[{"insee":"59249","name":"Fourmies","level":8,"coord":{"lat":"50.006001","lon":"4.0559"},"label":"Fourmies (59610)","id":"admin:55432extern","zip_code":"59610"}],"timezone":"Europe/Paris","id":"stop_area:OCE:SA:87295048","fields":{"departement":"Nord","commune":"Fourmies","uic":"0087295048","segment_drg":"b","region":"Nord-Pas-de-Calais","nombre_plateformes":"1","niveau_de_service":"1","wgs_84":[50.01541,4.05357],"intitule_gare":"Fourmies","code_postal":"59610"}},{"name":"gare de Jeumont","links":[],"coord":{"lat":"50.2961","lon":"4.086424"},"label":"gare de Jeumont (Jeumont)","administrative_regions":[{"insee":"59324","name":"Jeumont","level":8,"coord":{"lat":"50.298138","lon":"4.099061"},"label":"Jeumont (59460)","id":"admin:55163extern","zip_code":"59460"}],"timezone":"Europe/Paris","id":"stop_area:OCE:SA:87295014","fields":{"departement":"Nord","commune":"Jeumont","uic":"0087295014","segment_drg":"b","region":"Nord-Pas-de-Calais","nombre_plateformes":"1","niveau_de_service":"1","wgs_84":[50.29606,4.08645],"intitule_gare":"Jeumont","code_postal":"59460"}},{"name":"gare de Ste Marguerite","links":[],"coord":{"lat":"50.740292","lon":"3.00923"},"label":"gare de Ste Marguerite (Comines)","administrative_regions":[{"insee":"59152","name":"Comines","level":8,"coord":{"lat":"50.749001","lon":"3.014699"},"label":"Comines (59560)","id":"admin:59971extern","zip_code":"59560"}],"timezone":"Europe/Paris","id":"stop_area:OCE:SA:87287193","fields":{"departement":"Nord","commune":"Comines","uic":"0087287193","segment_drg":"c","region":"Nord-Pas-de-Calais","nombre_plateformes":"1","niveau_de_service":"1","wgs_84":[50.7403764,3.0092045],"intitule_gare":"Sainte-Marguerite","code_postal":"59660"}},{"name":"gare de Marquette","links":[],"coord":{"lat":"50.672401","lon":"3.051087"},"label":"gare de Marquette (Marquette-lez-Lille)","administrative_regions":[{"insee":"59386","name":"Marquette-lez-Lille","level":8,"coord":{"lat":"50.674133","lon":"3.059194"},"label":"Marquette-lez-Lille (59520)","id":"admin:59064extern","zip_code":"59520"}],"timezone":"Europe/Paris","id":"stop_area:OCE:SA:87287169","fields":{"departement":"Nord","commune":"Marquette-lez-Lille","uic":"0087287169","segment_drg":"c","region":"Nord-Pas-de-Calais","nombre_plateformes":"1","niveau_de_service":"1","wgs_84":[50.6724025,3.0510262],"intitule_gare":"Marquette","code_postal":"59252"}},{"name":"gare de Lesquin","links":[],"coord":{"lat":"50.590717","lon":"3.117736"},"label":"gare de Lesquin (Lesquin)","administrative_regions":[{"insee":"59343","name":"Lesquin","level":8,"coord":{"lat":"50.588799","lon":"3.109969"},"label":"Lesquin (59810)","id":"admin:58175extern","zip_code":"59810"}],"timezone":"Europe/Paris","id":"stop_area:OCE:SA:87286849","fields":{"departement":"Nord","commune":"Lesquin","uic":"0087286849","segment_drg":"b","region":"Nord-Pas-de-Calais","nombre_plateformes":"1","niveau_de_service":"1","wgs_84":[50.59068,3.11771],"intitule_gare":"Lesquin","code_postal":"59810"}},{"name":"gare de Orchies","links":[],"coord":{"lat":"50.47706","lon":"3.248911"},"label":"gare de Orchies (Orchies)","administrative_regions":[{"insee":"59449","name":"Orchies","level":8,"coord":{"lat":"50.474503","lon":"3.242531"},"label":"Orchies (59310)","id":"admin:56906extern","zip_code":"59310"}],"timezone":"Europe/Paris","id":"stop_area:OCE:SA:87286583","fields":{"departement":"Nord","commune":"Orchies","uic":"0087286583","segment_drg":"b","region":"Nord-Pas-de-Calais","nombre_plateformes":"1","niveau_de_service":"2","wgs_84":[50.47705,3.24888],"intitule_gare":"Orchies","code_postal":"59310"}},{"name":"gare de Tourcoing","links":[],"coord":{"lat":"50.716745","lon":"3.168038"},"label":"gare de Tourcoing (Tourcoing)","administrative_regions":[{"insee":"59599","name":"Tourcoing","level":8,"coord":{"lat":"50.721729","lon":"3.159308"},"label":"Tourcoing (59200)","id":"admin:59551extern","zip_code":"59200"}],"timezone":"Europe/Paris","id":"stop_area:OCE:SA:87286542","fields":{"departement":"Nord","commune":"Tourcoing","uic":"0087286542","segment_drg":"b","region":"Nord-Pas-de-Calais","nombre_plateformes":"1","niveau_de_service":"2","wgs_84":[50.71683,3.16804],"intitule_gare":"Tourcoing","code_postal":"59200"}},{"name":"gare de Seclin","links":[],"coord":{"lat":"50.54858","lon":"3.034989"},"label":"gare de Seclin (Seclin)","administrative_regions":[{"insee":"59560","name":"Seclin","level":8,"coord":{"lat":"50.550869","lon":"3.030697"},"label":"Seclin (59113)","id":"admin:58042extern","zip_code":"59113"}],"timezone":"Europe/Paris","id":"stop_area:OCE:SA:87286518","fields":{"departement":"Nord","commune":"Seclin","uic":"0087286518","segment_drg":"b","region":"Nord-Pas-de-Calais","nombre_plateformes":"1","niveau_de_service":"1","wgs_84":[50.5486319,3.0350084],"intitule_gare":"Seclin","code_postal":"59113"}},{"name":"gare de Santes","links":[],"coord":{"lat":"50.592033","lon":"2.961946"},"label":"gare de Santes (Santes)","administrative_regions":[{"insee":"59553","name":"Santes","level":8,"coord":{"lat":"50.597412","lon":"2.955203"},"label":"Santes (59211)","id":"admin:58166extern","zip_code":"59211"}],"timezone":"Europe/Paris","id":"stop_area:OCE:SA:87286401","fields":{"departement":"Nord","commune":"Santes","uic":"0087286401","segment_drg":"c","region":"Nord-Pas-de-Calais","nombre_plateformes":"1","niveau_de_service":"1","wgs_84":[50.5920123,2.961977],"intitule_gare":"Santes","code_postal":"59211"}},{"name":"gare de Hazebrouck","links":[],"coord":{"lat":"50.725055","lon":"2.54155"},"label":"gare de Hazebrouck (Hazebrouck)","administrative_regions":[{"insee":"59295","name":"Hazebrouck","level":8,"coord":{"lat":"50.72261","lon":"2.536033"},"label":"Hazebrouck (59190)","id":"admin:78593extern","zip_code":"59190"}],"timezone":"Europe/Paris","id":"stop_area:OCE:SA:87286302","fields":{"departement":"Nord","commune":"Hazebrouck","uic":"0087286302","segment_drg":"b","region":"Nord-Pas-de-Calais","nombre_plateformes":"1","niveau_de_service":"2","wgs_84":[50.72501,2.54129],"intitule_gare":"Hazebrouck","code_postal":"59190"}},{"name":"gare de Pérenchies","links":[],"coord":{"lat":"50.666992","lon":"2.977293"},"label":"gare de Pérenchies (Pérenchies)","administrative_regions":[{"insee":"59457","name":"Pérenchies","level":8,"coord":{"lat":"50.67075","lon":"2.967287"},"label":"Pérenchies (59840)","id":"admin:58894extern","zip_code":"59840"}],"timezone":"Europe/Paris","id":"stop_area:OCE:SA:87286278","fields":{"departement":"Nord","commune":"Pérenchies","uic":"0087286278","segment_drg":"b","region":"Nord-Pas-de-Calais","nombre_plateformes":"1","niveau_de_service":"1","wgs_84":[50.66697,2.97729],"intitule_gare":"Pérenchies","code_postal":"59840"}},{"name":"gare de Steenwerck","links":[],"coord":{"lat":"50.712918","lon":"2.787129"},"label":"gare de Steenwerck (Bailleul)","administrative_regions":[{"insee":"59043","name":"Bailleul","level":8,"coord":{"lat":"50.739666","lon":"2.734928"},"label":"Bailleul (59270)","id":"admin:68724extern","zip_code":"59270"}],"timezone":"Europe/Paris","id":"stop_area:OCE:SA:87286161","fields":{"departement":"Nord","commune":"Steenwerck","uic":"0087286161","segment_drg":"c","region":"Nord-Pas-de-Calais","nombre_plateformes":"1","niveau_de_service":"1","wgs_84":[50.713459,2.7855769],"intitule_gare":"Steenwerck","code_postal":"59181"}},{"name":"gare de Haubourdin","links":[],"coord":{"lat":"50.607066","lon":"2.990116"},"label":"gare de Haubourdin (Haubourdin)","administrative_regions":[{"insee":"59286","name":"Haubourdin","level":8,"coord":{"lat":"50.609356","lon":"2.986442"},"label":"Haubourdin (59320)","id":"admin:58168extern","zip_code":"59320"}],"timezone":"Europe/Paris","id":"stop_area:OCE:SA:87286096","fields":{"departement":"Nord","commune":"Haubourdin","uic":"0087286096","segment_drg":"c","region":"Nord-Pas-de-Calais","nombre_plateformes":"1","niveau_de_service":"1","wgs_84":[50.6070495,2.990153],"intitule_gare":"Haubourdin","code_postal":"59320"}},{"name":"gare de Hellemmes","links":[],"coord":{"lat":"50.622678","lon":"3.115273"},"label":"gare de Hellemmes (Lille)","administrative_regions":[{"insee":"59350","name":"Lille","level":8,"coord":{"lat":"50.630508","lon":"3.070641"},"label":"Lille (59000-59800)","id":"admin:58404extern","zip_code":"59000;59800"}],"timezone":"Europe/Paris","id":"stop_area:OCE:SA:87286062","fields":{"departement":"Nord","commune":"Lille","uic":"0087286062","segment_drg":"c","region":"Nord-Pas-de-Calais","nombre_plateformes":"1","niveau_de_service":"1","wgs_84":[50.6226402,3.1149328],"intitule_gare":"Hellemmes","code_postal":"59260"}},{"name":"gare de Grande Synthe","links":[],"coord":{"lat":"51.002659","lon":"2.313435"},"label":"gare de Grande Synthe (Grande-Synthe)","administrative_regions":[{"insee":"59271","name":"Grande-Synthe","level":8,"coord":{"lat":"51.015255","lon":"2.300041"},"label":"Grande-Synthe (59760)","id":"admin:139537extern","zip_code":"59760"}],"timezone":"Europe/Paris","id":"stop_area:OCE:SA:87281311","fields":{"departement":"Nord","commune":"Grande-Synthe","uic":"0087281311","segment_drg":"c","region":"Nord-Pas-de-Calais","nombre_plateformes":"1","niveau_de_service":"1","wgs_84":[51.0026884,2.3133547],"intitule_gare":"Grande-Synthe","code_postal":"59760"}},{"name":"gare de Ribécourt","links":[],"coord":{"lat":"49.506323","lon":"2.927142"},"label":"gare de Ribécourt (Ribécourt-Dreslincourt)","administrative_regions":[{"insee":"60537","name":"Ribécourt-Dreslincourt","level":8,"coord":{"lat":"49.514069","lon":"2.921889"},"label":"Ribécourt-Dreslincourt (60170)","id":"admin:206545extern","zip_code":"60170"}],"timezone":"Europe/Paris","id":"stop_area:OCE:SA:87276766","fields":{"departement":"Oise","commune":"Ribécourt-Dreslincourt","uic":"0087276766","segment_drg":"b","region":"Picardie","nombre_plateformes":"1","niveau_de_service":"1","wgs_84":[49.50633,2.92714],"intitule_gare":"Ribécourt","code_postal":"60170"}},{"name":"gare de Le Meux-Croix-St-Ouen","links":[],"coord":{"lat":"49.359343","lon":"2.753295"},"label":"gare de Le Meux-Croix-St-Ouen (Le Meux)","administrative_regions":[{"insee":"60402","name":"Le Meux","level":8,"coord":{"lat":"49.365505","lon":"2.746236"},"label":"Le Meux (60880)","id":"admin:269936extern","zip_code":"60880"}],"timezone":"Europe/Paris","id":"stop_area:OCE:SA:87276733","fields":{"departement":"Oise","commune":"Meux","uic":"0087276733","segment_drg":"c","region":"Picardie","nombre_plateformes":"1","niveau_de_service":"1","wgs_84":[49.3594029,2.7532645],"intitule_gare":"Le Meux - Lacroix-Saint-Ouen","code_postal":"60880"}},{"name":"gare de Bornel-Belle-Eglise","links":[],"coord":{"lat":"49.194649","lon":"2.20724"},"label":"gare de Bornel-Belle-Eglise (Bornel)","administrative_regions":[{"insee":"60088","name":"Bornel","level":8,"coord":{"lat":"49.199577","lon":"2.208612"},"label":"Bornel (60540)","id":"admin:141973extern","zip_code":"60540"}],"timezone":"Europe/Paris","id":"stop_area:OCE:SA:87276717","fields":{"departement":"Oise","commune":"Bornel","uic":"0087276717","segment_drg":"b","region":"Picardie","nombre_plateformes":"1","niveau_de_service":"1","wgs_84":[49.19471,2.20717],"intitule_gare":"Bornel - Belle-Église","code_postal":"60540"}},{"name":"gare de Mériel","links":[],"coord":{"lat":"49.077855","lon":"2.205386"},"label":"gare de Mériel (Mériel)","administrative_regions":[{"insee":"95392","name":"Mériel","level":8,"coord":{"lat":"49.079056","lon":"2.204803"},"label":"Mériel (95630)","id":"admin:450352extern","zip_code":"95630"}],"timezone":"Europe/Paris","id":"stop_area:OCE:SA:87276675","fields":{"departement":"Val-d'Oise","commune":"Mériel","uic":"0087276675","code_postal":"95630","region":"Île-de-France","nombre_plateformes":"1","segment_drg":"b","wgs_84":[49.07777,2.20528],"intitule_gare":"Mériel"}},{"name":"gare de Frépillon","links":[],"coord":{"lat":"49.046314","lon":"2.197086"},"label":"gare de Frépillon (Frépillon)","administrative_regions":[{"insee":"95256","name":"Frépillon","level":8,"coord":{"lat":"49.051231","lon":"2.203243"},"label":"Frépillon (95740)","id":"admin:450645extern","zip_code":"95740"}],"timezone":"Europe/Paris","id":"stop_area:OCE:SA:87276659","fields":{"departement":"Val-d'Oise","commune":"Frépillon","uic":"0087276659","code_postal":"95740","region":"Île-de-France","nombre_plateformes":"1","segment_drg":"b","wgs_84":[49.0462,2.19717],"intitule_gare":"Frépillon"}},{"name":"gare de Viarmes","links":[],"coord":{"lat":"49.11631","lon":"2.367828"},"label":"gare de Viarmes (Viarmes)","administrative_regions":[{"insee":"95652","name":"Viarmes","level":8,"coord":{"lat":"49.124237","lon":"2.369244"},"label":"Viarmes (95270)","id":"admin:138472extern","zip_code":"95270"}],"timezone":"Europe/Paris","id":"stop_area:OCE:SA:87276568","fields":{"departement":"Val-d'Oise","commune":"Viarmes","uic":"0087276568","code_postal":"95270","region":"Île-de-France","nombre_plateformes":"1","segment_drg":"b","wgs_84":[49.11692,2.36838],"intitule_gare":"Viarmes"}},{"name":"gare de L'Isle-Adam-Parmain","links":[],"coord":{"lat":"49.114036","lon":"2.209592"},"label":"gare de L'Isle-Adam-Parmain (Parmain)","administrative_regions":[{"insee":"95480","name":"Parmain","level":8,"coord":{"lat":"49.114208","lon":"2.209045"},"label":"Parmain (95620)","id":"admin:365976extern","zip_code":"95620"}],"timezone":"Europe/Paris","id":"stop_area:OCE:SA:87276527","fields":{"departement":"Val-d'Oise","commune":"Parmain","uic":"0087276527","code_postal":"95290","region":"Île-de-France","nombre_plateformes":"1","segment_drg":"b","wgs_84":[49.11482,2.20976],"intitule_gare":"L'Isle-Adam - Parmain"}},{"name":"gare de Précy-sur-Oise","links":[],"coord":{"lat":"49.203239","lon":"2.376382"},"label":"gare de Précy-sur-Oise (Précy-sur-Oise)","administrative_regions":[{"insee":"60513","name":"Précy-sur-Oise","level":8,"coord":{"lat":"49.204777","lon":"2.379735"},"label":"Précy-sur-Oise (60460)","id":"admin:1283520extern","zip_code":"60460"}],"timezone":"Europe/Paris","id":"stop_area:OCE:SA:87276410","fields":{"departement":"Oise","commune":"Précy-sur-Oise","uic":"0087276410","segment_drg":"c","region":"Picardie","nombre_plateformes":"1","niveau_de_service":"1","wgs_84":[49.2033492,2.3764638],"intitule_gare":"Précy-sur-Oise","code_postal":"60460"}},{"name":"gare de Pont-Ste-Maxence","links":[],"coord":{"lat":"49.309784","lon":"2.602876"},"label":"gare de Pont-Ste-Maxence (Pont-Sainte-Maxence)","administrative_regions":[{"insee":"60509","name":"Pont-Sainte-Maxence","level":8,"coord":{"lat":"49.301247","lon":"2.604583"},"label":"Pont-Sainte-Maxence (60700)","id":"admin:456810extern","zip_code":"60700"}],"timezone":"Europe/Paris","id":"stop_area:OCE:SA:87276329","fields":{"departement":"Oise","commune":"Pont-Sainte-Maxence","uic":"0087276329","segment_drg":"b","region":"Picardie","nombre_plateformes":"1","niveau_de_service":"2","wgs_84":[49.30974,2.60289],"intitule_gare":"Pont-Sainte-Maxence","code_postal":"60700"}},{"name":"gare de Chevrières","links":[],"coord":{"lat":"49.337403","lon":"2.683003"},"label":"gare de Chevrières (Chevrières)","administrative_regions":[{"insee":"60149","name":"Chevrières","level":8,"coord":{"lat":"49.346371","lon":"2.681067"},"label":"Chevrières (60710)","id":"admin:454888extern","zip_code":"60710"}],"timezone":"Europe/Paris","id":"stop_area:OCE:SA:87276311","fields":{"departement":"Oise","commune":"Chevrières","uic":"0087276311","segment_drg":"c","region":"Picardie","nombre_plateformes":"1","niveau_de_service":"1","wgs_84":[49.3373064,2.6828025],"intitule_gare":"Chevrières","code_postal":"60710"}},{"name":"gare de La Borne-Blanche","links":[],"coord":{"lat":"49.127131","lon":"2.505573"},"label":"gare de La Borne-Blanche (Orry-la-Ville)","administrative_regions":[{"insee":"60482","name":"Orry-la-Ville","level":8,"coord":{"lat":"49.133259","lon":"2.513537"},"label":"Orry-la-Ville (60560)","id":"admin:1529748extern","zip_code":"60560"}],"timezone":"Europe/Paris","id":"stop_area:OCE:SA:87276287","fields":{"departement":"Oise","commune":"Orry-la-Ville","uic":"0087276287","segment_drg":"c","region":"Picardie","nombre_plateformes":"1","niveau_de_service":"1","wgs_84":[49.126985,2.5058656],"intitule_gare":"La Borne Blanche","code_postal":"60560"}},{"name":"gare de Louvres","links":[],"coord":{"lat":"49.049544","lon":"2.502243"},"label":"gare de Louvres (Louvres)","administrative_regions":[{"insee":"95351","name":"Louvres","level":8,"coord":{"lat":"49.043201","lon":"2.506939"},"label":"Louvres (95380)","id":"admin:530587extern","zip_code":"95380"}],"timezone":"Europe/Paris","id":"stop_area:OCE:SA:87276253","fields":{"departement":"Val-d'Oise","commune":"Louvres","uic":"0087276253","code_postal":"95380","region":"Île-de-France","nombre_plateformes":"1","segment_drg":"b","wgs_84":[49.0496573,2.5018967],"intitule_gare":"Louvres"}},{"name":"gare de Villiers-le-Bel-Gonesse","links":[],"coord":{"lat":"48.994196","lon":"2.416099"},"label":"gare de Villiers-le-Bel-Gonesse (Arnouville)","administrative_regions":[{"insee":"95019","name":"Arnouville","level":8,"coord":{"lat":"48.985004","lon":"2.418799"},"label":"Arnouville (95400)","id":"admin:452549extern","zip_code":"95400"}],"timezone":"Europe/Paris","id":"stop_area:OCE:SA:87276220","fields":{"departement":"Val-d'Oise","commune":"Arnouville","uic":"0087276220","code_postal":"95400","region":"Île-de-France","nombre_plateformes":"1","segment_drg":"b","wgs_84":[48.994175,2.4162288],"intitule_gare":"Villiers-le-Bel - Gonesse - Arnouville"}},{"name":"gare de Sannois","links":[],"coord":{"lat":"48.970017","lon":"2.263741"},"label":"gare de Sannois (Sannois)","administrative_regions":[{"insee":"95582","name":"Sannois","level":8,"coord":{"lat":"48.973499","lon":"2.252259"},"label":"Sannois (95110)","id":"admin:103051extern","zip_code":"95110"}],"timezone":"Europe/Paris","id":"stop_area:OCE:SA:87276188","fields":{"departement":"Val-d'Oise","commune":"Sannois","uic":"0087276188","code_postal":"95110","region":"Île-de-France","nombre_plateformes":"1","segment_drg":"b","wgs_84":[48.97016,2.26377],"intitule_gare":"Sannois"}},{"name":"gare de Epluches","links":[],"coord":{"lat":"49.054587","lon":"2.12218"},"label":"gare de Epluches (Saint-Ouen-l'Aumône)","administrative_regions":[{"insee":"95572","name":"Saint-Ouen-l'Aumône","level":8,"coord":{"lat":"49.044765","lon":"2.105984"},"label":"Saint-Ouen-l'Aumône (95310)","id":"admin:73899extern","zip_code":"95310"}],"timezone":"Europe/Paris","id":"stop_area:OCE:SA:87276147","fields":{"departement":"Val-d'Oise","commune":"Saint-Ouen-l'Aumône","uic":"0087276147","code_postal":"95310","region":"Île-de-France","nombre_plateformes":"1","segment_drg":"c","wgs_84":[49.0549329,2.1225973],"intitule_gare":"Épluches"}},{"name":"gare de Chantilly-Gouvieux","links":[],"coord":{"lat":"49.186983","lon":"2.459848"},"label":"gare de Chantilly-Gouvieux (Chantilly)","administrative_regions":[{"insee":"60141","name":"Chantilly","level":8,"coord":{"lat":"49.193958","lon":"2.463256"},"label":"Chantilly (60500)","id":"admin:1415878extern","zip_code":"60500"}],"timezone":"Europe/Paris","id":"stop_area:OCE:SA:87276113","fields":{"departement":"Oise","commune":"Chantilly","uic":"0087276113","segment_drg":"b","region":"Picardie","nombre_plateformes":"1","niveau_de_service":"2","wgs_84":[49.18724,2.45979],"intitule_gare":"Chantilly - Gouvieux","code_postal":"60500"}},{"name":"gare de Pierrelaye","links":[],"coord":{"lat":"49.019504","lon":"2.153614"},"label":"gare de Pierrelaye (Pierrelaye)","administrative_regions":[{"insee":"95488","name":"Pierrelaye","level":8,"coord":{"lat":"49.024273","lon":"2.146492"},"label":"Pierrelaye (95480)","id":"admin:405619extern","zip_code":"95480"}],"timezone":"Europe/Paris","id":"stop_area:OCE:SA:87276097","fields":{"departement":"Val-d'Oise","commune":"Pierrelaye","uic":"0087276097","code_postal":"95480","region":"Île-de-France","nombre_plateformes":"1","segment_drg":"b","wgs_84":[49.01955,2.15371],"intitule_gare":"Pierrelaye"}},{"name":"gare de Parc-des-Expositions","links":[],"coord":{"lat":"48.973655","lon":"2.514218"},"label":"gare de Parc-des-Expositions (Villepinte)","administrative_regions":[{"insee":"93078","name":"Villepinte","level":8,"coord":{"lat":"48.963657","lon":"2.534754"},"label":"Villepinte (93420)","id":"admin:162261extern","zip_code":"93420"}],"timezone":"Europe/Paris","id":"stop_area:OCE:SA:87271486","fields":{"departement":"Seine-Saint-Denis","commune":"Villepinte","uic":"0087271486","code_postal":"93420","region":"Île-de-France","nombre_plateformes":"1","segment_drg":"b","wgs_84":[48.97334,2.51382],"intitule_gare":"Parc des Expositions"}},{"name":"gare de Epinay-Villetaneuse","links":[],"coord":{"lat":"48.958105","lon":"2.328772"},"label":"gare de Epinay-Villetaneuse (Épinay-sur-Seine)","administrative_regions":[{"insee":"93031","name":"Épinay-sur-Seine","level":8,"coord":{"lat":"48.952518","lon":"2.314503"},"label":"Épinay-sur-Seine (93800)","id":"admin:162856extern","zip_code":"93800"}],"timezone":"Europe/Paris","id":"stop_area:OCE:SA:87271122","fields":{"departement":"Seine-Saint-Denis","commune":"Épinay-sur-Seine","uic":"0087271122","code_postal":"93800","region":"Île-de-France","nombre_plateformes":"1","segment_drg":"b","wgs_84":[48.95838,2.32865],"intitule_gare":"Épinay - Villetaneuse"}},{"name":"gare de Paris-Nord","links":[],"coord":{"lat":"48.880141","lon":"2.354906"},"label":"gare de Paris-Nord (Paris)","administrative_regions":[{"insee":"75056","name":"Paris","level":8,"coord":{"lat":"48.856491","lon":"2.352156"},"label":"Paris (75001-75116)","id":"admin:7444extern","zip_code":"75001;75116"},{"insee":"75110","name":"Paris 10e Arrondissement","level":9,"coord":{"lat":"48.876106","lon":"2.35991"},"label":"Paris 10e Arrondissement (75010)","id":"admin:9528extern","zip_code":"75010"}],"timezone":"Europe/Paris","id":"stop_area:OCE:SA:87271007","fields":{"departement":"Paris","commune":"Paris","uic":"0087271007 0087271031 0087271023","segment_drg":"a b","region":"Île-de-France","nombre_plateformes":"4","niveau_de_service":"3 2","wgs_84":[48.880185,2.355151],"intitule_gare":"Paris Gare du Nord","code_postal":"75010"}},{"name":"gare de Tieffenbach-Struth","links":[],"coord":{"lat":"48.906002","lon":"7.255286"},"label":"gare de Tieffenbach-Struth (Tieffenbach)","administrative_regions":[{"insee":"67491","name":"Tieffenbach","level":8,"coord":{"lat":"48.905563","lon":"7.250609"},"label":"Tieffenbach (67290)","id":"admin:1173660extern","zip_code":"67290"}],"timezone":"Europe/Paris","id":"stop_area:OCE:SA:87215699","fields":{"departement":"Bas-Rhin","commune":"Tieffenbach","uic":"0087215699","segment_drg":"c","region":"Alsace","nombre_plateformes":"1","niveau_de_service":"1","wgs_84":[48.9062169,7.25527],"intitule_gare":"Tieffenbach - Struth","code_postal":"67290"}},{"name":"gare de Martres-Tolosane","links":[],"coord":{"lat":"43.198531","lon":"1.010304"},"label":"gare de Martres-Tolosane (Martres-Tolosane)","administrative_regions":[{"insee":"31324","name":"Martres-Tolosane","level":8,"coord":{"lat":"43.197956","lon":"1.010282"},"label":"Martres-Tolosane (31220)","id":"admin:161121extern","zip_code":"31220"}],"timezone":"Europe/Paris","id":"stop_area:OCE:SA:87611087","fields":{"departement":"Haute-Garonne","commune":"Martres-Tolosane","uic":"0087611087","segment_drg":"c","region":"Midi-Pyrénées","nombre_plateformes":"1","niveau_de_service":"1","wgs_84":[43.1962069,1.0167558],"intitule_gare":"Martres-Tolosane","code_postal":"31220"}},{"name":"gare de Carbonne","links":[],"coord":{"lat":"43.29818","lon":"1.212508"},"label":"gare de Carbonne (Carbonne)","administrative_regions":[{"insee":"31107","name":"Carbonne","level":8,"coord":{"lat":"43.295815","lon":"1.225068"},"label":"Carbonne (31390)","id":"admin:154964extern","zip_code":"31390"}],"timezone":"Europe/Paris","id":"stop_area:OCE:SA:87611061","fields":{"departement":"Haute-Garonne","commune":"Carbonne","uic":"0087611061","segment_drg":"b","region":"Midi-Pyrénées","nombre_plateformes":"1","niveau_de_service":"1","wgs_84":[43.298206,1.212531],"intitule_gare":"Carbonne","code_postal":"31390"}},{"name":"gare de Lavaveix-les-Mines","links":[],"coord":{"lat":"46.078898","lon":"2.08919"},"label":"gare de Lavaveix-les-Mines (Lavaveix-les-Mines)","administrative_regions":[{"insee":"23105","name":"Lavaveix-les-Mines","level":8,"coord":{"lat":"46.072243","lon":"2.089182"},"label":"Lavaveix-les-Mines (23150)","id":"admin:118818extern","zip_code":"23150"}],"timezone":"Europe/Paris","id":"stop_area:OCE:SA:87597781","fields":{"departement":"Creuse","commune":"Lavaveix-les-Mines","uic":"0087597781","segment_drg":"c","region":"Limousin","nombre_plateformes":"1","niveau_de_service":"1","wgs_84":[46.0795307,2.0890801],"intitule_gare":"Lavaveix-les-Mines","code_postal":"23150"}},{"name":"gare de Vieilleville","links":[],"coord":{"lat":"46.091129","lon":"1.673534"},"label":"gare de Vieilleville (Mourioux-Vieilleville)","administrative_regions":[{"insee":"23137","name":"Mourioux-Vieilleville","level":8,"coord":{"lat":"46.076977","lon":"1.644844"},"label":"Mourioux-Vieilleville (23210)","id":"admin:119349extern","zip_code":"23210"}],"timezone":"Europe/Paris","id":"stop_area:OCE:SA:87597633","fields":{"departement":"Creuse","commune":"Mourioux-Vieilleville","uic":"0087597633","segment_drg":"c","region":"Limousin","nombre_plateformes":"1","niveau_de_service":"1","wgs_84":[46.0910959,1.6736439],"intitule_gare":"Vieilleville","code_postal":"23210"}},{"name":"gare de Eguzon","links":[],"coord":{"lat":"46.440488","lon":"1.552357"},"label":"gare de Eguzon (Éguzon-Chantôme)","administrative_regions":[{"insee":"36070","name":"Éguzon-Chantôme","level":8,"coord":{"lat":"46.442314","lon":"1.582822"},"label":"Éguzon-Chantôme (36270)","id":"admin:124007extern","zip_code":"36270"}],"timezone":"Europe/Paris","id":"stop_area:OCE:SA:87597153","fields":{"departement":"Indre","commune":"Éguzon-Chantôme","uic":"0087597153","segment_drg":"c","region":"Centre","nombre_plateformes":"1","niveau_de_service":"1","wgs_84":[46.4397694,1.5521707],"intitule_gare":"Éguzon","code_postal":"36270"}},{"name":"gare de Argenton-sur-Creuse","links":[],"coord":{"lat":"46.592221","lon":"1.518223"},"label":"gare de Argenton-sur-Creuse (Argenton-sur-Creuse)","administrative_regions":[{"insee":"36006","name":"Argenton-sur-Creuse","level":8,"coord":{"lat":"46.589355","lon":"1.518429"},"label":"Argenton-sur-Creuse (36200)","id":"admin:1030765extern","zip_code":"36200"}],"timezone":"Europe/Paris","id":"stop_area:OCE:SA:87597120","fields":{"departement":"Indre","commune":"Argenton-sur-Creuse","uic":"0087597120","segment_drg":"b","region":"Centre","nombre_plateformes":"1","niveau_de_service":"1","wgs_84":[46.592248,1.518305],"intitule_gare":"Argenton-sur-Creuse","code_postal":"36200"}},{"name":"gare de Montpon-Ménestérol","links":[],"coord":{"lat":"45.006265","lon":"0.159325"},"label":"gare de Montpon-Ménestérol (Montpon-Ménestérol)","administrative_regions":[{"insee":"24294","name":"Montpon-Ménestérol","level":8,"coord":{"lat":"45.009888","lon":"0.163189"},"label":"Montpon-Ménestérol (24700)","id":"admin:1658155extern","zip_code":"24700"}],"timezone":"Europe/Paris","id":"stop_area:OCE:SA:87595322","fields":{"departement":"Dordogne","commune":"Montpon-Ménestérol","uic":"0087595322","segment_drg":"b","region":"Aquitaine","nombre_plateformes":"1","niveau_de_service":"1","wgs_84":[45.006326,0.159328],"intitule_gare":"Montpon-Ménestérol","code_postal":"24700"}},{"name":"gare de Douzillac","links":[],"coord":{"lat":"45.079273","lon":"0.416958"},"label":"gare de Douzillac (Douzillac)","administrative_regions":[{"insee":"24157","name":"Douzillac","level":8,"coord":{"lat":"45.084663","lon":"0.415403"},"label":"Douzillac (24190)","id":"admin:2954777extern","zip_code":"24190"}],"timezone":"Europe/Paris","id":"stop_area:OCE:SA:87595280","fields":{"departement":"Dordogne","commune":"Douzillac","uic":"0087595280","segment_drg":"c","region":"Aquitaine","nombre_plateformes":"1","niveau_de_service":"1","wgs_84":[45.0794691,0.4173893],"intitule_gare":"Douzillac","code_postal":"24190"}},{"name":"gare de Agonac","links":[],"coord":{"lat":"45.286671","lon":"0.748579"},"label":"gare de Agonac (Agonac)","administrative_regions":[{"insee":"24002","name":"Agonac","level":8,"coord":{"lat":"45.292328","lon":"0.749359"},"label":"Agonac (24460)","id":"admin:3251562extern","zip_code":"24460"}],"timezone":"Europe/Paris","id":"stop_area:OCE:SA:87595157","fields":{"departement":"Dordogne","commune":"Agonac","uic":"0087595157","segment_drg":"c","region":"Aquitaine","nombre_plateformes":"1","niveau_de_service":"1","wgs_84":[45.2865966,0.7486706],"intitule_gare":"Agonac","code_postal":"24460"}},{"name":"gare de Laval-de-Cère","links":[],"coord":{"lat":"44.951283","lon":"1.931408"},"label":"gare de Laval-de-Cère (Laval-de-Cère)","administrative_regions":[{"insee":"46163","name":"Laval-de-Cère","level":8,"coord":{"lat":"44.952633","lon":"1.933966"},"label":"Laval-de-Cère (46130)","id":"admin:123847extern","zip_code":"46130"}],"timezone":"Europe/Paris","id":"stop_area:OCE:SA:87594796","fields":{"departement":"Lot","commune":"Laval-de-Cère","uic":"0087594796","segment_drg":"c","region":"Midi-Pyrénées","nombre_plateformes":"1","niveau_de_service":"1","wgs_84":[44.9512118,1.9317113],"intitule_gare":"Laval-de-Cère","code_postal":"46130"}},{"name":"gare de Lubersac","links":[],"coord":{"lat":"45.444538","lon":"1.388973"},"label":"gare de Lubersac (Lubersac)","administrative_regions":[{"insee":"19121","name":"Lubersac","level":8,"coord":{"lat":"45.444279","lon":"1.403998"},"label":"Lubersac (19210)","id":"admin:120820extern","zip_code":"19210"}],"timezone":"Europe/Paris","id":"stop_area:OCE:SA:87594671","fields":{"departement":"Corrèze","commune":"Lubersac","uic":"0087594671","segment_drg":"c","region":"Limousin","nombre_plateformes":"1","niveau_de_service":"1","wgs_84":[45.4446152,1.3888289],"intitule_gare":"Lubersac","code_postal":"19210"}},{"name":"gare de Vignols-St-Solve","links":[],"coord":{"lat":"45.313081","lon":"1.397737"},"label":"gare de Vignols-St-Solve (Vignols)","administrative_regions":[{"insee":"19286","name":"Vignols","level":8,"coord":{"lat":"45.319363","lon":"1.389289"},"label":"Vignols (19130)","id":"admin:121705extern","zip_code":"19130"}],"timezone":"Europe/Paris","id":"stop_area:OCE:SA:87594655","fields":{"departement":"Corrèze","commune":"Saint-Solve","uic":"0087594655","segment_drg":"c","region":"Limousin","nombre_plateformes":"1","niveau_de_service":"1","wgs_84":[45.313078,1.397515],"intitule_gare":"Vignols - Saint-Solve","code_postal":"19130"}},{"name":"gare de Turenne","links":[],"coord":{"lat":"45.039821","lon":"1.599795"},"label":"gare de Turenne (Turenne)","administrative_regions":[{"insee":"19273","name":"Turenne","level":8,"coord":{"lat":"45.053482","lon":"1.581422"},"label":"Turenne (19500)","id":"admin:121673extern","zip_code":"19500"}],"timezone":"Europe/Paris","id":"stop_area:OCE:SA:87594556","fields":{"departement":"Corrèze","commune":"Turenne","uic":"0087594556","segment_drg":"c","region":"Limousin","nombre_plateformes":"1","niveau_de_service":"1","wgs_84":[45.0379541,1.6007045],"intitule_gare":"Turenne","code_postal":"19500"}},{"name":"gare de Ussel","links":[],"coord":{"lat":"45.557321","lon":"2.314426"},"label":"gare de Ussel (Ussel)","administrative_regions":[{"insee":"19275","name":"Ussel","level":8,"coord":{"lat":"45.546379","lon":"2.311227"},"label":"Ussel (19200)","id":"admin:122233extern","zip_code":"19200"}],"timezone":"Europe/Paris","id":"stop_area:OCE:SA:87594093","fields":{"departement":"Corrèze","commune":"Ussel","uic":"0087594093","segment_drg":"c","region":"Limousin","nombre_plateformes":"1","niveau_de_service":"1","wgs_84":[45.5574383,2.3143439],"intitule_gare":"Ussel","code_postal":"19200"}},{"name":"gare de Brive-la-Gaillarde","links":[],"coord":{"lat":"45.152554","lon":"1.528616"},"label":"gare de Brive-la-Gaillarde (Brive-la-Gaillarde)","administrative_regions":[{"insee":"19031","name":"Brive-la-Gaillarde","level":8,"coord":{"lat":"45.158497","lon":"1.533238"},"label":"Brive-la-Gaillarde (19100)","id":"admin:120557extern","zip_code":"19100"}],"timezone":"Europe/Paris","id":"stop_area:OCE:SA:87594002","fields":{"departement":"Corrèze","commune":"Brive-la-Gaillarde","uic":"0087594002","segment_drg":"a","region":"Limousin","nombre_plateformes":"1","niveau_de_service":"2","wgs_84":[45.152618,1.528655],"intitule_gare":"Brive-la-Gaillarde","code_postal":"19100"}},{"name":"gare de Aixe-sur-Vienne","links":[],"coord":{"lat":"45.796575","lon":"1.14573"},"label":"gare de Aixe-sur-Vienne (Aixe-sur-Vienne)","administrative_regions":[{"insee":"87001","name":"Aixe-sur-Vienne","level":8,"coord":{"lat":"45.796799","lon":"1.135791"},"label":"Aixe-sur-Vienne (87700)","id":"admin:114171extern","zip_code":"87700"}],"timezone":"Europe/Paris","id":"stop_area:OCE:SA:87592667","fields":{"departement":"Haute-Vienne","commune":"Aixe-sur-Vienne","uic":"0087592667","segment_drg":"c","region":"Limousin","nombre_plateformes":"1","niveau_de_service":"1","wgs_84":[45.7965002,1.1456892],"intitule_gare":"Aixe-sur-Vienne","code_postal":"87700"}},{"name":"gare de Le Dorat","links":[],"coord":{"lat":"46.211103","lon":"1.079234"},"label":"gare de Le Dorat (Le Dorat)","administrative_regions":[{"insee":"87059","name":"Le Dorat","level":8,"coord":{"lat":"46.214436","lon":"1.08226"},"label":"Le Dorat (87210)","id":"admin:116007extern","zip_code":"87210"}],"timezone":"Europe/Paris","id":"stop_area:OCE:SA:87592543","fields":{"departement":"Haute-Vienne","commune":"Dorat","uic":"0087592543","segment_drg":"c","region":"Limousin","nombre_plateformes":"1","niveau_de_service":"1","wgs_84":[46.2110908,1.0793364],"intitule_gare":"Le Dorat","code_postal":"87210"}},{"name":"gare de Vaulry","links":[],"coord":{"lat":"46.024641","lon":"1.109274"},"label":"gare de Vaulry (Vaulry)","administrative_regions":[{"insee":"87198","name":"Vaulry","level":8,"coord":{"lat":"46.023041","lon":"1.085811"},"label":"Vaulry (87140)","id":"admin:400638extern","zip_code":"87140"}],"timezone":"Europe/Paris","id":"stop_area:OCE:SA:87592451","fields":{"departement":"Haute-Vienne","commune":"Vaulry","uic":"0087592451","segment_drg":"c","region":"Limousin","nombre_plateformes":"1","niveau_de_service":"1","wgs_84":[46.0247131,1.1091331],"intitule_gare":"Vaulry","code_postal":"87140"}},{"name":"gare de La Souterraine","links":[],"coord":{"lat":"46.239745","lon":"1.492225"},"label":"gare de La Souterraine (La Souterraine)","administrative_regions":[{"insee":"23176","name":"La Souterraine","level":8,"coord":{"lat":"46.236725","lon":"1.4756"},"label":"La Souterraine (23300)","id":"admin:118810extern","zip_code":"23300"}],"timezone":"Europe/Paris","id":"stop_area:OCE:SA:87592378","fields":{"departement":"Creuse","commune":"Souterraine","uic":"0087592378","segment_drg":"b","region":"Limousin","nombre_plateformes":"1","niveau_de_service":"1","wgs_84":[46.239792,1.492151],"intitule_gare":"La Souterraine","code_postal":"23300"}},{"name":"gare de St-Sulpice-Laurière","links":[],"coord":{"lat":"46.046862","lon":"1.476272"},"label":"gare de St-Sulpice-Laurière (Saint-Sulpice-Laurière)","administrative_regions":[{"insee":"87181","name":"Saint-Sulpice-Laurière","level":8,"coord":{"lat":"46.04871","lon":"1.479471"},"label":"Saint-Sulpice-Laurière (87370)","id":"admin:453940extern","zip_code":"87370"}],"timezone":"Europe/Paris","id":"stop_area:OCE:SA:87592345","fields":{"departement":"Haute-Vienne","commune":"Saint-Sulpice-Laurière","uic":"0087592345","segment_drg":"c","region":"Limousin","nombre_plateformes":"1","niveau_de_service":"1","wgs_84":[46.0469183,1.4762218],"intitule_gare":"Saint-Sulpice-Laurière","code_postal":"87370"}},{"name":"gare de Magnac-Vicq","links":[],"coord":{"lat":"45.628834","lon":"1.443765"},"label":"gare de Magnac-Vicq (Vicq-sur-Breuilh)","administrative_regions":[{"insee":"87203","name":"Vicq-sur-Breuilh","level":8,"coord":{"lat":"45.646706","lon":"1.382793"},"label":"Vicq-sur-Breuilh (87260)","id":"admin:2177628extern","zip_code":"87260"}],"timezone":"Europe/Paris","id":"stop_area:OCE:SA:87592279","fields":{"departement":"Haute-Vienne","commune":"Vicq-sur-Breuilh","uic":"0087592279","segment_drg":"c","region":"Limousin","nombre_plateformes":"1","niveau_de_service":"1","wgs_84":[45.6288007,1.4438445],"intitule_gare":"Magnac - Vicq","code_postal":"87380"}},{"name":"gare de Brignac","links":[],"coord":{"lat":"45.864048","lon":"1.44013"},"label":"gare de Brignac (Royères)","administrative_regions":[{"insee":"87129","name":"Royères","level":8,"coord":{"lat":"45.848564","lon":"1.429448"},"label":"Royères (87400)","id":"admin:116522extern","zip_code":"87400"}],"timezone":"Europe/Paris","id":"stop_area:OCE:SA:87592063","fields":{"departement":"Haute-Vienne","commune":"Royères","uic":"0087592063","segment_drg":"c","region":"Limousin","nombre_plateformes":"1","niveau_de_service":"1","wgs_84":[45.8635812,1.4406315],"intitule_gare":"Brignac","code_postal":"87400"}},{"name":"gare de Limoges-Montjovis","links":[],"coord":{"lat":"45.838389","lon":"1.251617"},"label":"gare de Limoges-Montjovis (Limoges)","administrative_regions":[{"insee":"87085","name":"Limoges","level":8,"coord":{"lat":"45.835423","lon":"1.264484"},"label":"Limoges (87000-87280)","id":"admin:114172extern","zip_code":"87000;87280"}],"timezone":"Europe/Paris","id":"stop_area:OCE:SA:87592022","fields":{"departement":"Haute-Vienne","commune":"Limoges","uic":"0087592022","segment_drg":"c","region":"Limousin","nombre_plateformes":"1","niveau_de_service":"1","wgs_84":[45.8384117,1.2514147],"intitule_gare":"Limoges Montjovis","code_postal":"87100"}},{"name":"gare de Limoges-Bénédictins","links":[],"coord":{"lat":"45.836201","lon":"1.267442"},"label":"gare de Limoges-Bénédictins (Limoges)","administrative_regions":[{"insee":"87085","name":"Limoges","level":8,"coord":{"lat":"45.835423","lon":"1.264484"},"label":"Limoges (87000-87280)","id":"admin:114172extern","zip_code":"87000;87280"}],"timezone":"Europe/Paris","id":"stop_area:OCE:SA:87592006","fields":{"departement":"Haute-Vienne","commune":"Limoges","uic":"0087592006","segment_drg":"a","region":"Limousin","nombre_plateformes":"1","niveau_de_service":"2","wgs_84":[45.836089,1.267356],"intitule_gare":"Limoges Bénédictins","code_postal":"87000"}},{"name":"gare de Babinière","links":[],"coord":{"lat":"47.259121","lon":"-1.545345"},"label":"gare de Babinière (La Chapelle-sur-Erdre)","administrative_regions":[{"insee":"44035","name":"La Chapelle-sur-Erdre","level":8,"coord":{"lat":"47.299683","lon":"-1.551863"},"label":"La Chapelle-sur-Erdre (44240)","id":"admin:73554extern","zip_code":"44240"}],"timezone":"Europe/Paris","id":"stop_area:OCE:SA:87590349","fields":{"departement":"Loire-Atlantique","commune":"Chapelle-sur-Erdre","uic":"0087590349","segment_drg":"c","region":"Pays de la Loire","nombre_plateformes":"1","niveau_de_service":"1","wgs_84":[47.2591762,-1.5452842],"intitule_gare":"Babinière","code_postal":"44240"}},{"name":"gare de Haluchère-Batignolles","links":[],"coord":{"lat":"47.249124","lon":"-1.522516"},"label":"gare de Haluchère-Batignolles (Nantes)","administrative_regions":[{"insee":"44109","name":"Nantes","level":8,"coord":{"lat":"47.218636","lon":"-1.554136"},"label":"Nantes (44000-44300)","id":"admin:59874extern","zip_code":"44000;44300"}],"timezone":"Europe/Paris","id":"stop_area:OCE:SA:87590331","fields":{"departement":"Loire-Atlantique","commune":"Nantes","uic":"0087590331","segment_drg":"c","region":"Pays de la Loire","nombre_plateformes":"1","niveau_de_service":"1","wgs_84":[47.249142,-1.5224436],"intitule_gare":"Haluchère Batignolles","code_postal":"44000"}},{"name":"gare de La Gorp","links":[],"coord":{"lat":"44.928689","lon":"-0.496685"},"label":"gare de La Gorp (Ambarès-et-Lagrave)","administrative_regions":[{"insee":"33003","name":"Ambarès-et-Lagrave","level":8,"coord":{"lat":"44.9259","lon":"-0.488184"},"label":"Ambarès-et-Lagrave (33440)","id":"admin:88611extern","zip_code":"33440"}],"timezone":"Europe/Paris","id":"stop_area:OCE:SA:87584755","fields":{"departement":"Gironde","commune":"Ambarès-et-Lagrave","uic":"0087584755","segment_drg":"c","region":"Aquitaine","nombre_plateformes":"1","niveau_de_service":"1","wgs_84":[44.9288345,-0.4963844],"intitule_gare":"La Gorp","code_postal":"33380"}},{"name":"gare de St-Denis-de-Pile","links":[],"coord":{"lat":"44.978567","lon":"-0.198041"},"label":"gare de St-Denis-de-Pile (Saint-Denis-de-Pile)","administrative_regions":[{"insee":"33393","name":"Saint-Denis-de-Pile","level":8,"coord":{"lat":"44.991859","lon":"-0.20534"},"label":"Saint-Denis-de-Pile (33910)","id":"admin:2816901extern","zip_code":"33910"}],"timezone":"Europe/Paris","id":"stop_area:OCE:SA:87584508","fields":{"departement":"Gironde","commune":"Saint-Denis-de-Pile","uic":"0087584508","segment_drg":"c","region":"Aquitaine","nombre_plateformes":"1","niveau_de_service":"1","wgs_84":[44.9786053,-0.1980825],"intitule_gare":"Saint-Denis-de-Pile","code_postal":"33910"}},{"name":"gare de Trémolat","links":[],"coord":{"lat":"44.862311","lon":"0.830412"},"label":"gare de Trémolat (Trémolat)","administrative_regions":[{"insee":"24558","name":"Trémolat","level":8,"coord":{"lat":"44.875767","lon":"0.831483"},"label":"Trémolat (24510)","id":"admin:1735485extern","zip_code":"24510"}],"timezone":"Europe/Paris","id":"stop_area:OCE:SA:87584474","fields":{"departement":"Dordogne","commune":"Trémolat","uic":"0087584474","segment_drg":"c","region":"Aquitaine","nombre_plateformes":"1","niveau_de_service":"1","wgs_84":[44.8625105,0.8303278],"intitule_gare":"Trémolat","code_postal":"24510"}},{"name":"gare de Velines","links":[],"coord":{"lat":"44.851986","lon":"0.103669"},"label":"gare de Velines (Vélines)","administrative_regions":[{"insee":"24568","name":"Vélines","level":8,"coord":{"lat":"44.859341","lon":"0.107398"},"label":"Vélines (24230)","id":"admin:1629622extern","zip_code":"24230"}],"timezone":"Europe/Paris","id":"stop_area:OCE:SA:87584177","fields":{"departement":"Dordogne","commune":"Vélines","uic":"0087584177","segment_drg":"c","region":"Aquitaine","nombre_plateformes":"1","niveau_de_service":"1","wgs_84":[44.8520145,0.1036584],"intitule_gare":"Vélines","code_postal":"24230"}},{"name":"gare de St-Emilion","links":[],"coord":{"lat":"44.881275","lon":"-0.15926"},"label":"gare de St-Emilion (Saint-Émilion)","administrative_regions":[{"insee":"33394","name":"Saint-Émilion","level":8,"coord":{"lat":"44.893147","lon":"-0.156066"},"label":"Saint-Émilion (33330)","id":"admin:89248extern","zip_code":"33330"}],"timezone":"Europe/Paris","id":"stop_area:OCE:SA:87584102","fields":{"departement":"Gironde","commune":"Saint-Émilion","uic":"0087584102","segment_drg":"c","region":"Aquitaine","nombre_plateformes":"1","niveau_de_service":"1","wgs_84":[44.8811665,-0.1592003],"intitule_gare":"Saint-Émilion","code_postal":"33330"}},{"name":"gare de Ruffec (Charente)","links":[],"coord":{"lat":"46.030519","lon":"0.190116"},"label":"gare de Ruffec (Charente) (Ruffec)","administrative_regions":[{"insee":"16292","name":"Ruffec","level":8,"coord":{"lat":"46.028706","lon":"0.199178"},"label":"Ruffec (16700)","id":"admin:254310extern","zip_code":"16700"}],"timezone":"Europe/Paris","id":"stop_area:OCE:SA:87583849","fields":{"departement":"Charente","commune":"Ruffec","uic":"0087583849","segment_drg":"c","region":"Poitou-Charentes","nombre_plateformes":"1","niveau_de_service":"1","wgs_84":[46.0305185,0.1902055],"intitule_gare":"Ruffec","code_postal":"16700"}},{"name":"gare de La Rochefoucauld","links":[],"coord":{"lat":"45.740184","lon":"0.389574"},"label":"gare de La Rochefoucauld (La Rochefoucauld)","administrative_regions":[{"insee":"16281","name":"La Rochefoucauld","level":8,"coord":{"lat":"45.740471","lon":"0.38418"},"label":"La Rochefoucauld (16110)","id":"admin:111329extern","zip_code":"16110"}],"timezone":"Europe/Paris","id":"stop_area:OCE:SA:87583427","fields":{"departement":"Charente","commune":"Rochefoucauld","uic":"0087583427","segment_drg":"c","region":"Poitou-Charentes","nombre_plateformes":"1","niveau_de_service":"1","wgs_84":[45.7401921,0.3895946],"intitule_gare":"La Rochefoucauld","code_postal":"16110"}},{"name":"gare de Angoulême","links":[],"coord":{"lat":"45.653927","lon":"0.164516"},"label":"gare de Angoulême (Angoulême)","administrative_regions":[{"insee":"16015","name":"Angoulême","level":8,"coord":{"lat":"45.649673","lon":"0.156865"},"label":"Angoulême (16000)","id":"admin:85809extern","zip_code":"16000"}],"timezone":"Europe/Paris","id":"stop_area:OCE:SA:87583005","fields":{"departement":"Charente","commune":"Angoulême","uic":"0087583005","segment_drg":"a","region":"Poitou-Charentes","nombre_plateformes":"1","niveau_de_service":"2","wgs_84":[45.653572,0.164608],"intitule_gare":"Angoulême","code_postal":"16000"}},{"name":"gare de Podensac","links":[],"coord":{"lat":"44.648999","lon":"-0.358846"},"label":"gare de Podensac (Podensac)","administrative_regions":[{"insee":"33327","name":"Podensac","level":8,"coord":{"lat":"44.650818","lon":"-0.355765"},"label":"Podensac (33720)","id":"admin:92968extern","zip_code":"33720"}],"timezone":"Europe/Paris","id":"stop_area:OCE:SA:87582734","fields":{"departement":"Gironde","commune":"Podensac","uic":"0087582734","segment_drg":"c","region":"Aquitaine","nombre_plateformes":"1","niveau_de_service":"1","wgs_84":[44.6489664,-0.3589057],"intitule_gare":"Podensac","code_postal":"33720"}},{"name":"gare de Beautiran","links":[],"coord":{"lat":"44.701027","lon":"-0.450194"},"label":"gare de Beautiran (Beautiran)","administrative_regions":[{"insee":"33037","name":"Beautiran","level":8,"coord":{"lat":"44.704441","lon":"-0.451139"},"label":"Beautiran (33640)","id":"admin:104336extern","zip_code":"33640"}],"timezone":"Europe/Paris","id":"stop_area:OCE:SA:87582700","fields":{"departement":"Gironde","commune":"Beautiran","uic":"0087582700","segment_drg":"b","region":"Aquitaine","nombre_plateformes":"1","niveau_de_service":"1","wgs_84":[44.701041,-0.45017],"intitule_gare":"Beautiran","code_postal":"33640"}},{"name":"gare de Villenave-d'Ornon","links":[],"coord":{"lat":"44.768696","lon":"-0.547473"},"label":"gare de Villenave-d'Ornon (Villenave-d'Ornon)","administrative_regions":[{"insee":"33550","name":"Villenave-d'Ornon","level":8,"coord":{"lat":"44.773788","lon":"-0.559502"},"label":"Villenave-d'Ornon (33140)","id":"admin:105273extern","zip_code":"33140"}],"timezone":"Europe/Paris","id":"stop_area:OCE:SA:87581835","fields":{"departement":"Gironde","commune":"Villenave-d'Ornon","uic":"0087581835","segment_drg":"c","region":"Aquitaine","nombre_plateformes":"1","niveau_de_service":"1","wgs_84":[44.7683428,-0.5472574],"intitule_gare":"Villenave-d'Ornon","code_postal":"33140"}},{"name":"gare de Alouette-France","links":[],"coord":{"lat":"44.793491","lon":"-0.659632"},"label":"gare de Alouette-France (Pessac)","administrative_regions":[{"insee":"33318","name":"Pessac","level":8,"coord":{"lat":"44.805561","lon":"-0.630278"},"label":"Pessac (33600)","id":"admin:105281extern","zip_code":"33600"}],"timezone":"Europe/Paris","id":"stop_area:OCE:SA:87581793","fields":{"departement":"Gironde","commune":"Pessac","uic":"0087581793","segment_drg":"b","region":"Aquitaine","nombre_plateformes":"1","niveau_de_service":"1","wgs_84":[44.793355,-0.65965],"intitule_gare":"Alouette France","code_postal":"33600"}},{"name":"gare de Soulac-sur-Mer","links":[],"coord":{"lat":"45.508203","lon":"-1.11777"},"label":"gare de Soulac-sur-Mer (Soulac-sur-Mer)","administrative_regions":[{"insee":"33514","name":"Soulac-sur-Mer","level":8,"coord":{"lat":"45.513149","lon":"-1.122878"},"label":"Soulac-sur-Mer (33780)","id":"admin:161253extern","zip_code":"33780"}],"timezone":"Europe/Paris","id":"stop_area:OCE:SA:87581371","fields":{"departement":"Gironde","commune":"Soulac-sur-Mer","uic":"0087581371","segment_drg":"c","region":"Aquitaine","nombre_plateformes":"1","niveau_de_service":"1","wgs_84":[45.5081769,-1.1175894],"intitule_gare":"Soulac-sur-Mer","code_postal":"33780"}},{"name":"gare de Pauillac","links":[],"coord":{"lat":"45.203736","lon":"-0.754992"},"label":"gare de Pauillac (Pauillac)","administrative_regions":[{"insee":"33314","name":"Pauillac","level":8,"coord":{"lat":"45.199562","lon":"-0.748499"},"label":"Pauillac (33250)","id":"admin:398667extern","zip_code":"33250"}],"timezone":"Europe/Paris","id":"stop_area:OCE:SA:87581256","fields":{"departement":"Gironde","commune":"Pauillac","uic":"0087581256","segment_drg":"c","region":"Aquitaine","nombre_plateformes":"1","niveau_de_service":"1","wgs_84":[45.2038438,-0.7551342],"intitule_gare":"Pauillac","code_postal":"33250"}},{"name":"gare de Macau","links":[],"coord":{"lat":"45.004145","lon":"-0.619863"},"label":"gare de Macau (Macau)","administrative_regions":[{"insee":"33262","name":"Macau","level":8,"coord":{"lat":"45.007999","lon":"-0.615019"},"label":"Macau (33460)","id":"admin:103237extern","zip_code":"33460"}],"timezone":"Europe/Paris","id":"stop_area:OCE:SA:87581199","fields":{"departement":"Gironde","commune":"Macau","uic":"0087581199","segment_drg":"c","region":"Aquitaine","nombre_plateformes":"1","niveau_de_service":"1","wgs_84":[45.0040981,-0.6200068],"intitule_gare":"Macau","code_postal":"33460"}},{"name":"gare de Bengy","links":[],"coord":{"lat":"47.000391","lon":"2.7491"},"label":"gare de Bengy (Bengy-sur-Craon)","administrative_regions":[{"insee":"18027","name":"Bengy-sur-Craon","level":8,"coord":{"lat":"47.00029","lon":"2.749016"},"label":"Bengy-sur-Craon (18520)","id":"admin:1904351extern","zip_code":"18520"}],"timezone":"Europe/Paris","id":"stop_area:OCE:SA:87576447","fields":{"departement":"Cher","commune":"Bengy-sur-Craon","uic":"0087576447","segment_drg":"c","region":"Centre","nombre_plateformes":"1","niveau_de_service":"1","wgs_84":[47.0004698,2.7492361],"intitule_gare":"Bengy","code_postal":"18520"}},{"name":"gare de Lunery","links":[],"coord":{"lat":"46.935127","lon":"2.275059"},"label":"gare de Lunery (Lunery)","administrative_regions":[{"insee":"18133","name":"Lunery","level":8,"coord":{"lat":"46.93581","lon":"2.26954"},"label":"Lunery (18400)","id":"admin:388828extern","zip_code":"18400"}],"timezone":"Europe/Paris","id":"stop_area:OCE:SA:87576280","fields":{"departement":"Cher","commune":"Lunery","uic":"0087576280","segment_drg":"c","region":"Centre","nombre_plateformes":"1","niveau_de_service":"1","wgs_84":[46.9351795,2.275014],"intitule_gare":"Lunery","code_postal":"18400"}},{"name":"gare de Vierzon-Forges","links":[],"coord":{"lat":"47.210347","lon":"2.099325"},"label":"gare de Vierzon-Forges (Vierzon)","administrative_regions":[{"insee":"18279","name":"Vierzon","level":8,"coord":{"lat":"47.221748","lon":"2.069142"},"label":"Vierzon (18100)","id":"admin:191434extern","zip_code":"18100"}],"timezone":"Europe/Paris","id":"stop_area:OCE:SA:87576090","fields":{"departement":"Cher","commune":"Vierzon","uic":"0087576090","segment_drg":"c","region":"Centre","nombre_plateformes":"1","niveau_de_service":"1","wgs_84":[47.2099931,2.0994545],"intitule_gare":"Vierzon Forges","code_postal":"18100"}},{"name":"gare de Vivonne","links":[],"coord":{"lat":"46.426785","lon":"0.265101"},"label":"gare de Vivonne (Vivonne)","administrative_regions":[{"insee":"86293","name":"Vivonne","level":8,"coord":{"lat":"46.426811","lon":"0.262103"},"label":"Vivonne (86370)","id":"admin:145003extern","zip_code":"86370"}],"timezone":"Europe/Paris","id":"stop_area:OCE:SA:87575290","fields":{"departement":"Vienne","commune":"Vivonne","uic":"0087575290","segment_drg":"c","region":"Poitou-Charentes","nombre_plateformes":"1","niveau_de_service":"1","wgs_84":[46.4266355,0.2653156],"intitule_gare":"Vivonne","code_postal":"86370"}},{"name":"gare de Dissay (Vienne)","links":[],"coord":{"lat":"46.703728","lon":"0.421125"},"label":"gare de Dissay (Vienne) (Dissay)","administrative_regions":[{"insee":"86095","name":"Dissay","level":8,"coord":{"lat":"46.698517","lon":"0.428023"},"label":"Dissay (86130)","id":"admin:138348extern","zip_code":"86130"}],"timezone":"Europe/Paris","id":"stop_area:OCE:SA:87575191","fields":{"departement":"Vienne","commune":"Dissay","uic":"0087575191","segment_drg":"c","region":"Poitou-Charentes","nombre_plateformes":"1","niveau_de_service":"1","wgs_84":[46.703544,0.4210161],"intitule_gare":"Dissay","code_postal":"86130"}},{"name":"gare de Dangé","links":[],"coord":{"lat":"46.937809","lon":"0.608774"},"label":"gare de Dangé (Dangé-Saint-Romain)","administrative_regions":[{"insee":"86092","name":"Dangé-Saint-Romain","level":8,"coord":{"lat":"46.936085","lon":"0.607671"},"label":"Dangé-Saint-Romain (86220)","id":"admin:275069extern","zip_code":"86220"}],"timezone":"Europe/Paris","id":"stop_area:OCE:SA:87575126","fields":{"departement":"Vienne","commune":"Dangé-Saint-Romain","uic":"0087575126","segment_drg":"c","region":"Poitou-Charentes","nombre_plateformes":"1","niveau_de_service":"1","wgs_84":[46.9378397,0.6087754],"intitule_gare":"Dangé-Saint-Romain","code_postal":"86220"}},{"name":"gare de Les Ormes-sur-Vienne","links":[],"coord":{"lat":"46.970779","lon":"0.608162"},"label":"gare de Les Ormes-sur-Vienne (Les Ormes)","administrative_regions":[{"insee":"86183","name":"Les Ormes","level":8,"coord":{"lat":"46.973103","lon":"0.604447"},"label":"Les Ormes (86220)","id":"admin:275082extern","zip_code":"86220"}],"timezone":"Europe/Paris","id":"stop_area:OCE:SA:87575118","fields":{"departement":"Vienne","commune":"Ormes","uic":"0087575118","segment_drg":"c","region":"Poitou-Charentes","nombre_plateformes":"1","niveau_de_service":"1","wgs_84":[46.9718269,0.6079476],"intitule_gare":"Les Ormes","code_postal":"86220"}},{"name":"gare de Port-de-Piles","links":[],"coord":{"lat":"47.010146","lon":"0.598556"},"label":"gare de Port-de-Piles (La Celle-Saint-Avant)","administrative_regions":[{"insee":"37045","name":"La Celle-Saint-Avant","level":8,"coord":{"lat":"47.021976","lon":"0.604199"},"label":"La Celle-Saint-Avant (37160)","id":"admin:889098extern","zip_code":"37160"}],"timezone":"Europe/Paris","id":"stop_area:OCE:SA:87575076","fields":{"departement":"Indre-et-Loire","commune":"Celle-Saint-Avant","uic":"0087575076","segment_drg":"c","region":"Centre","nombre_plateformes":"1","niveau_de_service":"1","wgs_84":[47.0102599,0.5989179],"intitule_gare":"Port-de-Piles","code_postal":"37000"}},{"name":"gare de Ste-Maure-Noyant","links":[],"coord":{"lat":"47.111112","lon":"0.577005"},"label":"gare de Ste-Maure-Noyant (Noyant-de-Touraine)","administrative_regions":[{"insee":"37176","name":"Noyant-de-Touraine","level":8,"coord":{"lat":"47.110229","lon":"0.560737"},"label":"Noyant-de-Touraine (37800)","id":"admin:1621655extern","zip_code":"37800"}],"timezone":"Europe/Paris","id":"stop_area:OCE:SA:87575050","fields":{"departement":"Indre-et-Loire","commune":"Noyant-de-Touraine","uic":"0087575050","segment_drg":"c","region":"Centre","nombre_plateformes":"1","niveau_de_service":"1","wgs_84":[47.1112361,0.5769439],"intitule_gare":"Sainte-Maure - Noyant","code_postal":"37800"}},{"name":"gare de Poitiers","links":[],"coord":{"lat":"46.58218","lon":"0.333076"},"label":"gare de Poitiers (Poitiers)","administrative_regions":[{"insee":"86194","name":"Poitiers","level":8,"coord":{"lat":"46.580257","lon":"0.340195"},"label":"Poitiers (86000)","id":"admin:132348extern","zip_code":"86000"}],"timezone":"Europe/Paris","id":"stop_area:OCE:SA:87575001","fields":{"departement":"Vienne","commune":"Poitiers","uic":"0087575001","segment_drg":"a","region":"Poitou-Charentes","nombre_plateformes":"1","niveau_de_service":"2","wgs_84":[46.582275,0.333241],"intitule_gare":"Poitiers","code_postal":"86000"}},{"name":"gare de St-Aignan-Noyers","links":[],"coord":{"lat":"47.286728","lon":"1.38366"},"label":"gare de St-Aignan-Noyers (Noyers-sur-Cher)","administrative_regions":[{"insee":"41164","name":"Noyers-sur-Cher","level":8,"coord":{"lat":"47.279716","lon":"1.381191"},"label":"Noyers-sur-Cher (41140)","id":"admin:1397031extern","zip_code":"41140"}],"timezone":"Europe/Paris","id":"stop_area:OCE:SA:87574897","fields":{"departement":"Loir-et-Cher","commune":"Noyers-sur-Cher","uic":"0087574897","segment_drg":"c","region":"Centre","nombre_plateformes":"1","niveau_de_service":"1","wgs_84":[47.2869126,1.3838369],"intitule_gare":"Saint-Aignan - Noyers","code_postal":"41110"}},{"name":"gare de Chissay-en-Touraine","links":[],"coord":{"lat":"47.334935","lon":"1.133578"},"label":"gare de Chissay-en-Touraine (Chissay-en-Touraine)","administrative_regions":[{"insee":"41051","name":"Chissay-en-Touraine","level":8,"coord":{"lat":"47.33672","lon":"1.132589"},"label":"Chissay-en-Touraine (41400)","id":"admin:280471extern","zip_code":"41400"}],"timezone":"Europe/Paris","id":"stop_area:OCE:SA:87574848","fields":{"departement":"Loir-et-Cher","commune":"Chissay-en-Touraine","uic":"0087574848","segment_drg":"c","region":"Centre","nombre_plateformes":"1","niveau_de_service":"1","wgs_84":[47.3349004,1.1333044],"intitule_gare":"Chissay-en-Touraine","code_postal":"41400"}},{"name":"gare de Vendôme","links":[],"coord":{"lat":"47.802161","lon":"1.067692"},"label":"gare de Vendôme (Vendôme)","administrative_regions":[{"insee":"41269","name":"Vendôme","level":8,"coord":{"lat":"47.795517","lon":"1.066168"},"label":"Vendôme (41100)","id":"admin:276769extern","zip_code":"41100"}],"timezone":"Europe/Paris","id":"stop_area:OCE:SA:87574558","fields":{"departement":"Loir-et-Cher","commune":"Vendôme","uic":"0087574558","segment_drg":"c","region":"Centre","nombre_plateformes":"1","niveau_de_service":"1","wgs_84":[47.8021498,1.0678728],"intitule_gare":"Vendôme","code_postal":"41100"}},{"name":"gare de Noizay","links":[],"coord":{"lat":"47.409843","lon":"0.896114"},"label":"gare de Noizay (Noizay)","administrative_regions":[{"insee":"37171","name":"Noizay","level":8,"coord":{"lat":"47.422066","lon":"0.893047"},"label":"Noizay (37210)","id":"admin:77777extern","zip_code":"37210"}],"timezone":"Europe/Paris","id":"stop_area:OCE:SA:87574368","fields":{"departement":"Indre-et-Loire","commune":"Noizay","uic":"0087574368","segment_drg":"c","region":"Centre","nombre_plateformes":"1","niveau_de_service":"1","wgs_84":[47.4096869,0.8959456],"intitule_gare":"Noizay","code_postal":"37210"}},{"name":"gare de Amboise","links":[],"coord":{"lat":"47.421432","lon":"0.98122"},"label":"gare de Amboise (Amboise)","administrative_regions":[{"insee":"37003","name":"Amboise","level":8,"coord":{"lat":"47.411034","lon":"0.983698"},"label":"Amboise (37400)","id":"admin:80302extern","zip_code":"37400"}],"timezone":"Europe/Paris","id":"stop_area:OCE:SA:87574343","fields":{"departement":"Indre-et-Loire","commune":"Amboise","uic":"0087574343","segment_drg":"b","region":"Centre","nombre_plateformes":"1","niveau_de_service":"2","wgs_84":[47.42148,0.981299],"intitule_gare":"Amboise","code_postal":"37400"}},{"name":"gare de Chaingy-Fourneaux-Plage","links":[],"coord":{"lat":"47.877445","lon":"1.783802"},"label":"gare de Chaingy-Fourneaux-Plage (Chaingy)","administrative_regions":[{"insee":"45067","name":"Chaingy","level":8,"coord":{"lat":"47.8908","lon":"1.775398"},