[{"name":"gare de Augsburg-Hbf","links":[],"coord":{"lat":"48.365581","lon":"10.886756"},"label":"gare de Augsburg-Hbf","timezone":"Europe/Paris","id":"stop_area:OCE:SA:80021402"},{"name":"gare de Frankfurt-am-Main-Hbf","links":[],"coord":{"lat":"50.107216","lon":"8.66405"},"label":"gare de Frankfurt-am-Main-Hbf","administrative_regions":[{"insee":"","name":"Gallus","level":9,"coord":{"lat":"50.103378","lon":"8.636285"},"label":"Gallus","id":"admin:4209936extern","zip_code":""}],"timezone":"Europe/Paris","id":"stop_area:OCE:SA:80110684"},{"name":"gare de Port-Bou","links":[],"coord":{"lat":"43.024693","lon":"3.894575"},"label":"gare de Port-Bou","timezone":"Europe/Paris","id":"stop_area:OCE:SA:71793150"},{"name":"gare de Mannheim-Hbf","links":[],"coord":{"lat":"49.479714","lon":"8.470079"},"label":"gare de Mannheim-Hbf","administrative_regions":[{"insee":"","name":"Schwetzingerstadt/Oststadt","level":9,"coord":{"lat":"49.48053","lon":"8.488332"},"label":"Schwetzingerstadt/Oststadt","id":"admin:3286571extern","zip_code":""}],"timezone":"Europe/Paris","id":"stop_area:OCE:SA:80140087"},{"name":"gare de Karlsruhe-Hbf","links":[],"coord":{"lat":"48.99439","lon":"8.400254"},"label":"gare de Karlsruhe-Hbf","timezone":"Europe/Paris","id":"stop_area:OCE:SA:80142281"},{"name":"gare de Baden-Baden","links":[],"coord":{"lat":"48.790281","lon":"8.191165"},"label":"gare de Baden-Baden","timezone":"Europe/Paris","id":"stop_area:OCE:SA:80142778"},{"name":"gare de Irun","links":[],"coord":{"lat":"43.339432","lon":"-1.801337"},"label":"gare de Irun (Irun)","administrative_regions":[{"insee":"","name":"Irun","level":8,"coord":{"lat":"43.338318","lon":"-1.788809"},"label":"Irun","id":"admin:346782extern","zip_code":""}],"timezone":"Europe/Paris","id":"stop_area:OCE:SA:71116000"},{"name":"gare de Landau Hbf","links":[],"coord":{"lat":"49.1976","lon":"8.12557"},"label":"gare de Landau Hbf","timezone":"Europe/Paris","id":"stop_area:OCE:SA:80194258"},{"name":"gare de Petange","links":[],"coord":{"lat":"50.15426","lon":"6.616396"},"label":"gare de Petange (Mürlenbach)","administrative_regions":[{"insee":"","name":"Mürlenbach","level":8,"coord":{"lat":"50.147877","lon":"6.616121"},"label":"Mürlenbach","id":"admin:1074561extern","zip_code":""}],"timezone":"Europe/Paris","id":"stop_area:OCE:SA:82009300"},{"name":"gare de WINDEN PFALZ","links":[],"coord":{"lat":"49.095415","lon":"8.122376"},"label":"gare de WINDEN PFALZ (Winden)","administrative_regions":[{"insee":"","name":"Winden","level":8,"coord":{"lat":"49.094616","lon":"8.11692"},"label":"Winden","id":"admin:1250497extern","zip_code":""}],"timezone":"Europe/Paris","id":"stop_area:OCE:SA:80194324"},{"name":"gare de Kaiserslautern-Hbf","links":[],"coord":{"lat":"49.43628","lon":"7.768563"},"label":"gare de Kaiserslautern-Hbf","timezone":"Europe/Paris","id":"stop_area:OCE:SA:80196980"},{"name":"gare de Munchen-Hbf","links":[],"coord":{"lat":"48.140325","lon":"11.560415"},"label":"gare de Munchen-Hbf","administrative_regions":[{"insee":"","name":"Stadtbezirk 02 Ludwigsvorstadt-Isarvorstadt","level":9,"coord":{"lat":"48.13073","lon":"11.561022"},"label":"Stadtbezirk 02 Ludwigsvorstadt-Isarvorstadt","id":"admin:54392extern","zip_code":""}],"timezone":"Europe/Paris","id":"stop_area:OCE:SA:80203471"},{"name":"gare de Offenburg","links":[],"coord":{"lat":"48.476447","lon":"7.946696"},"label":"gare de Offenburg (Offenburg)","administrative_regions":[{"insee":"","name":"Offenburg","level":8,"coord":{"lat":"48.471657","lon":"7.944377"},"label":"Offenburg","id":"admin:452988extern","zip_code":""}],"timezone":"Europe/Paris","id":"stop_area:OCE:SA:80143099"},{"name":"gare de Freiburg-Breisgau","links":[],"coord":{"lat":"47.997776","lon":"7.841564"},"label":"gare de Freiburg-Breisgau","timezone":"Europe/Paris","id":"stop_area:OCE:SA:80143503"},{"name":"gare de Mullheim-Baden-Bf","links":[],"coord":{"lat":"47.809686","lon":"7.60004"},"label":"gare de Mullheim-Baden-Bf (Müllheim)","administrative_regions":[{"insee":"","name":"Müllheim (Kernstadt)","level":9,"coord":{"lat":"47.811024","lon":"7.612916"},"label":"Müllheim (Kernstadt)","id":"admin:311981extern","zip_code":""},{"insee":"","name":"Müllheim","level":8,"coord":{"lat":"47.813488","lon":"7.612184"},"label":"Müllheim","id":"admin:311922extern","zip_code":""}],"timezone":"Europe/Paris","id":"stop_area:OCE:SA:80144139"},{"name":"gare de NEUENBURG BADEN","links":[],"coord":{"lat":"47.811638","lon":"7.562861"},"label":"gare de NEUENBURG BADEN (Neuenburg am Rhein)","administrative_regions":[{"insee":"","name":"Neuenburg am Rhein","level":8,"coord":{"lat":"47.83083","lon":"7.570318"},"label":"Neuenburg am Rhein","id":"admin:270514extern","zip_code":""}],"timezone":"Europe/Paris","id":"stop_area:OCE:SA:80144154"},{"name":"gare de Neustadt (Weinstr) Hbf","links":[],"coord":{"lat":"49.350034","lon":"8.140647"},"label":"gare de Neustadt (Weinstr) Hbf","administrative_regions":[{"insee":"","name":"Neustadt-Stadtmitte","level":9,"coord":{"lat":"49.352497","lon":"8.117826"},"label":"Neustadt-Stadtmitte","id":"admin:456995extern","zip_code":""}],"timezone":"Europe/Paris","id":"stop_area:OCE:SA:80194035"},{"name":"gare de Appenweier","links":[],"coord":{"lat":"48.541326","lon":"7.973672"},"label":"gare de Appenweier (Appenweier)","administrative_regions":[{"insee":"","name":"Appenweier","level":8,"coord":{"lat":"48.553204","lon":"7.97982"},"label":"Appenweier","id":"admin:452982extern","zip_code":""}],"timezone":"Europe/Paris","id":"stop_area:OCE:SA:80142893"},{"name":"gare de Legelshurst","links":[],"coord":{"lat":"48.558571","lon":"7.913724"},"label":"gare de Legelshurst (Willstätt)","administrative_regions":[{"insee":"","name":"Willstätt","level":8,"coord":{"lat":"48.550797","lon":"7.894595"},"label":"Willstätt","id":"admin:452980extern","zip_code":""}],"timezone":"Europe/Paris","id":"stop_area:OCE:SA:80142901"},{"name":"gare de Kork","links":[],"coord":{"lat":"48.570017","lon":"7.874009"},"label":"gare de Kork (Kehl)","administrative_regions":[{"insee":"","name":"Kehl","level":8,"coord":{"lat":"48.573151","lon":"7.811103"},"label":"Kehl","id":"admin:452979extern","zip_code":""}],"timezone":"Europe/Paris","id":"stop_area:OCE:SA:80142919"},{"name":"gare de Kehl","links":[],"coord":{"lat":"48.576486","lon":"7.808005"},"label":"gare de Kehl (Kehl)","administrative_regions":[{"insee":"","name":"Kehl","level":8,"coord":{"lat":"48.573151","lon":"7.811103"},"label":"Kehl","id":"admin:452979extern","zip_code":""}],"timezone":"Europe/Paris","id":"stop_area:OCE:SA:80142927"},{"name":"gare de Trier-Hbf","links":[],"coord":{"lat":"49.756761","lon":"6.652361"},"label":"gare de Trier-Hbf","timezone":"Europe/Paris","id":"stop_area:OCE:SA:80251819"},{"name":"gare de Porte-de-Clichy","links":[],"coord":{"lat":"48.894071","lon":"2.314429"},"label":"gare de Porte-de-Clichy (Paris)","administrative_regions":[{"insee":"75117","name":"Paris 17e Arrondissement","level":9,"coord":{"lat":"48.884224","lon":"2.322363"},"label":"Paris 17e Arrondissement (75017)","id":"admin:9519extern","zip_code":"75017"},{"insee":"75056","name":"Paris","level":8,"coord":{"lat":"48.856491","lon":"2.352156"},"label":"Paris (75001-75116)","id":"admin:7444extern","zip_code":"75001;75116"}],"timezone":"Europe/Paris","id":"stop_area:OCE:SA:87111278"},{"name":"gare de Saarbrucken-Hbf","links":[],"coord":{"lat":"49.24065","lon":"6.990968"},"label":"gare de Saarbrucken-Hbf (Saarbrücken)","administrative_regions":[{"insee":"","name":"Saarbrücken","level":8,"coord":{"lat":"49.23436","lon":"6.996379"},"label":"Saarbrücken","id":"admin:1187159extern","zip_code":""},{"insee":"","name":"Mitte","level":9,"coord":{"lat":"49.251404","lon":"6.99026"},"label":"Mitte","id":"admin:5432693extern","zip_code":""}],"timezone":"Europe/Paris","id":"stop_area:OCE:SA:80253914"},{"name":"gare de Stuttgart","links":[],"coord":{"lat":"48.783622","lon":"9.180496"},"label":"gare de Stuttgart","administrative_regions":[{"insee":"","name":"Stuttgart-Mitte","level":9,"coord":{"lat":"48.77924","lon":"9.181115"},"label":"Stuttgart-Mitte","id":"admin:1107850extern","zip_code":""}],"timezone":"Europe/Paris","id":"stop_area:OCE:SA:80290346"},{"name":"gare de Ulm-Hbf","links":[],"coord":{"lat":"48.399362","lon":"9.983192"},"label":"gare de Ulm-Hbf","timezone":"Europe/Paris","id":"stop_area:OCE:SA:80291039"},{"name":"gare de Luxembourg","links":[],"coord":{"lat":"49.59962","lon":"6.134022"},"label":"gare de Luxembourg (Luxembourg)","administrative_regions":[{"insee":"","name":"Luxembourg","level":8,"coord":{"lat":"49.611275","lon":"6.129799"},"label":"Luxembourg","id":"admin:407489extern","zip_code":""},{"insee":"","name":"Gare","level":9,"coord":{"lat":"49.603561","lon":"6.127635"},"label":"Gare","id":"admin:535116extern","zip_code":""}],"timezone":"Europe/Paris","id":"stop_area:OCE:SA:82001000"},{"name":"gare de Esch-sur-Alzette","links":[],"coord":{"lat":"50.093889","lon":"6.72222"},"label":"gare de Esch-sur-Alzette (Deudesfeld)","administrative_regions":[{"insee":"","name":"Deudesfeld","level":8,"coord":{"lat":"50.104881","lon":"6.724696"},"label":"Deudesfeld","id":"admin:1085792extern","zip_code":""}],"timezone":"Europe/Paris","id":"stop_area:OCE:SA:82002360"},{"name":"gare de Rodange","links":[],"coord":{"lat":"50.15101","lon":"6.580197"},"label":"gare de Rodange (Mürlenbach)","administrative_regions":[{"insee":"","name":"Mürlenbach","level":8,"coord":{"lat":"50.147877","lon":"6.616121"},"label":"Mürlenbach","id":"admin:1074561extern","zip_code":""}],"timezone":"Europe/Paris","id":"stop_area:OCE:SA:82002370"},{"name":"gare de Bettembourg","links":[],"coord":{"lat":"50.116021","lon":"6.837894"},"label":"gare de Bettembourg (Bettembourg)","administrative_regions":[{"insee":"","name":"Bettembourg","level":8,"coord":{"lat":"49.519318","lon":"6.098886"},"label":"Bettembourg","id":"admin:407896extern","zip_code":""}],"timezone":"Europe/Paris","id":"stop_area:OCE:SA:82006030"},{"name":"gare de Belval-Université","links":[],"coord":{"lat":"50.099736","lon":"6.682659"},"label":"gare de Belval-Université (Meisburg)","administrative_regions":[{"insee":"","name":"Meisburg","level":8,"coord":{"lat":"50.104355","lon":"6.684422"},"label":"Meisburg","id":"admin:1085799extern","zip_code":""}],"timezone":"Europe/Paris","id":"stop_area:OCE:SA:82009100"},{"name":"gare de DIFFERDANGE","links":[],"coord":{"lat":"50.12244","lon":"6.628393"},"label":"gare de DIFFERDANGE (Densborn)","administrative_regions":[{"insee":"","name":"Densborn","level":8,"coord":{"lat":"50.120522","lon":"6.619384"},"label":"Densborn","id":"admin:1074567extern","zip_code":""}],"timezone":"Europe/Paris","id":"stop_area:OCE:SA:82009200"},{"name":"gare de Val-de-Fontenay","links":[],"coord":{"lat":"48.857422","lon":"2.490435"},"label":"gare de Val-de-Fontenay (Fontenay-sous-Bois)","administrative_regions":[{"insee":"94033","name":"Fontenay-sous-Bois","level":8,"coord":{"lat":"48.8508","lon":"2.47251"},"label":"Fontenay-sous-Bois (94120)","id":"admin:109366extern","zip_code":"94120"}],"timezone":"Europe/Paris","id":"stop_area:OCE:SA:87113712"},{"name":"gare de Bardonecchia-Stazione","links":[],"coord":{"lat":"45.07642","lon":"6.709629"},"label":"gare de Bardonecchia-Stazione (Bardonecchia)","administrative_regions":[{"insee":"","name":"Bardonecchia","level":8,"coord":{"lat":"45.078339","lon":"6.703204"},"label":"Bardonecchia","id":"admin:44251extern","zip_code":""}],"timezone":"Europe/Paris","id":"stop_area:OCE:SA:83002022"},{"name":"gare de Oulx-Cesana-Clav-Sestri","links":[],"coord":{"lat":"45.038782","lon":"6.831533"},"label":"gare de Oulx-Cesana-Clav-Sestri (Oulx)","administrative_regions":[{"insee":"","name":"Oulx","level":8,"coord":{"lat":"45.033051","lon":"6.832509"},"label":"Oulx","id":"admin:43955extern","zip_code":""}],"timezone":"Europe/Paris","id":"stop_area:OCE:SA:83002048"},{"name":"gare de Torino-Porta-Susa","links":[],"coord":{"lat":"45.073891","lon":"7.667504"},"label":"gare de Torino-Porta-Susa (Torino)","administrative_regions":[{"insee":"","name":"Torino","level":8,"coord":{"lat":"45.070919","lon":"7.685972"},"label":"Torino","id":"admin:43992extern","zip_code":""}],"timezone":"Europe/Paris","id":"stop_area:OCE:SA:83002220"},{"name":"gare de Vercelli","links":[],"coord":{"lat":"45.329112","lon":"8.414824"},"label":"gare de Vercelli (Vercelli)","administrative_regions":[{"insee":"","name":"Vercelli","level":8,"coord":{"lat":"45.325153","lon":"8.422766"},"label":"Vercelli (13100)","id":"admin:1552703extern","zip_code":"13100"}],"timezone":"Europe/Paris","id":"stop_area:OCE:SA:83002451"},{"name":"gare de Novara","links":[],"coord":{"lat":"45.450745","lon":"8.624939"},"label":"gare de Novara (Novara)","administrative_regions":[{"insee":"","name":"Novara","level":8,"coord":{"lat":"45.446404","lon":"8.619655"},"label":"Novara","id":"admin:44898extern","zip_code":""}],"timezone":"Europe/Paris","id":"stop_area:OCE:SA:83002485"},{"name":"gare de Ventimiglia-Stazione","links":[],"coord":{"lat":"43.792175","lon":"7.609676"},"label":"gare de Ventimiglia-Stazione (Ventimiglia)","administrative_regions":[{"insee":"","name":"Ventimiglia","level":8,"coord":{"lat":"43.791763","lon":"7.603313"},"label":"Ventimiglia","id":"admin:42680extern","zip_code":""}],"timezone":"Europe/Paris","id":"stop_area:OCE:SA:83045013"},{"name":"gare de Basel-SBB","links":[],"coord":{"lat":"47.547029","lon":"7.589551"},"label":"gare de Basel-SBB (Basel)","administrative_regions":[{"insee":"","name":"Basel","level":8,"coord":{"lat":"47.557751","lon":"7.593596"},"label":"Basel","id":"admin:1683619extern","zip_code":""}],"timezone":"Europe/Paris","id":"stop_area:OCE:SA:85000109"},{"name":"gare de Satigny","links":[],"coord":{"lat":"46.214243","lon":"6.037536"},"label":"gare de Satigny (Satigny)","administrative_regions":[{"insee":"","name":"Satigny","level":8,"coord":{"lat":"46.214069","lon":"6.036795"},"label":"Satigny (1242)","id":"admin:1685531extern","zip_code":"1242"}],"timezone":"Europe/Paris","id":"stop_area:OCE:SA:85010033"},{"name":"gare de Genève","links":[],"coord":{"lat":"46.210145","lon":"6.142596"},"label":"gare de Genève (Genève)","administrative_regions":[{"insee":"","name":"Genève","level":8,"coord":{"lat":"46.201756","lon":"6.146601"},"label":"Genève","id":"admin:1685488extern","zip_code":""}],"timezone":"Europe/Paris","id":"stop_area:OCE:SA:85010082"},{"name":"gare de Vallorbe-Cff","links":[],"coord":{"lat":"46.712222","lon":"6.370811"},"label":"gare de Vallorbe-Cff (Vallorbe)","administrative_regions":[{"insee":"","name":"Vallorbe","level":8,"coord":{"lat":"46.707825","lon":"6.371407"},"label":"Vallorbe (1337)","id":"admin:1685174extern","zip_code":"1337"}],"timezone":"Europe/Paris","id":"stop_area:OCE:SA:85011031"},{"name":"gare de Travers","links":[],"coord":{"lat":"47.54229","lon":"7.413054"},"label":"gare de Travers (Muespach-le-Haut)","administrative_regions":[{"insee":"68222","name":"Muespach-le-Haut","level":8,"coord":{"lat":"47.544048","lon":"7.403632"},"label":"Muespach-le-Haut (68640)","id":"admin:390662extern","zip_code":"68640"}],"timezone":"Europe/Paris","id":"stop_area:OCE:SA:85042150"},{"name":"gare de Neuchâtel","links":[],"coord":{"lat":"47.596583","lon":"7.672112"},"label":"gare de Neuchâtel (Lörrach)","administrative_regions":[{"insee":"","name":"Lörrach","level":8,"coord":{"lat":"47.628017","lon":"7.683962"},"label":"Lörrach","id":"admin:2787952extern","zip_code":""}],"timezone":"Europe/Paris","id":"stop_area:OCE:SA:85042218"},{"name":"gare de La Chaux-de-Fonds","links":[],"coord":{"lat":"47.098893","lon":"6.825575"},"label":"gare de La Chaux-de-Fonds (La Chaux-de-Fonds)","administrative_regions":[{"insee":"","name":"La Chaux-de-Fonds","level":8,"coord":{"lat":"47.110161","lon":"6.833421"},"label":"La Chaux-de-Fonds","id":"admin:1685495extern","zip_code":""}],"timezone":"Europe/Paris","id":"stop_area:OCE:SA:85043141"},{"name":"gare de Crêt-du-Locle (le)","links":[],"coord":{"lat":"47.077734","lon":"6.78529"},"label":"gare de Crêt-du-Locle (le) (La Chaux-de-Fonds)","administrative_regions":[{"insee":"","name":"La Chaux-de-Fonds","level":8,"coord":{"lat":"47.110161","lon":"6.833421"},"label":"La Chaux-de-Fonds","id":"admin:1685495extern","zip_code":""}],"timezone":"Europe/Paris","id":"stop_area:OCE:SA:85043158"},{"name":"gare de Aérop-C-de-Gaulle-2-TGV","links":[],"coord":{"lat":"49.003608","lon":"2.571047"},"label":"gare de Aérop-C-de-Gaulle-2-TGV (Tremblay-en-France)","administrative_regions":[{"insee":"93073","name":"Tremblay-en-France","level":8,"coord":{"lat":"48.980202","lon":"2.558955"},"label":"Tremblay-en-France (93290)","id":"admin:160818extern","zip_code":"93290"}],"timezone":"Europe/Paris","id":"stop_area:OCE:SA:87001479"},{"name":"gare de La Douzillère","links":[],"coord":{"lat":"47.338632","lon":"0.653005"},"label":"gare de La Douzillère (Joué-lès-Tours)","administrative_regions":[{"insee":"37122","name":"Joué-lès-Tours","level":8,"coord":{"lat":"47.351089","lon":"0.662252"},"label":"Joué-lès-Tours (37300)","id":"admin:76340extern","zip_code":"37300"}],"timezone":"Europe/Paris","id":"stop_area:OCE:SA:87009696"},{"name":"gare de Lille CHR","links":[],"coord":{"lat":"50.614542","lon":"3.035542"},"label":"gare de Lille CHR (Lille)","administrative_regions":[{"insee":"59350","name":"Lille","level":8,"coord":{"lat":"50.630508","lon":"3.070641"},"label":"Lille (59000-59800)","id":"admin:58404extern","zip_code":"59000;59800"}],"timezone":"Europe/Paris","id":"stop_area:OCE:SA:87109306"},{"name":"gare de Crouy-sur-Ourcq","links":[],"coord":{"lat":"49.09153","lon":"3.062945"},"label":"gare de Crouy-sur-Ourcq (Crouy-sur-Ourcq)","administrative_regions":[{"insee":"77148","name":"Crouy-sur-Ourcq","level":8,"coord":{"lat":"49.090618","lon":"3.075397"},"label":"Crouy-sur-Ourcq (77840)","id":"admin:87573extern","zip_code":"77840"}],"timezone":"Europe/Paris","id":"stop_area:OCE:SA:87116640"},{"name":"gare de Mareuil-sur-Ourcq","links":[],"coord":{"lat":"49.135387","lon":"3.075299"},"label":"gare de Mareuil-sur-Ourcq (Mareuil-sur-Ourcq)","administrative_regions":[{"insee":"60380","name":"Mareuil-sur-Ourcq","level":8,"coord":{"lat":"49.136333","lon":"3.079047"},"label":"Mareuil-sur-Ourcq (60890)","id":"admin:1083099extern","zip_code":"60890"}],"timezone":"Europe/Paris","id":"stop_area:OCE:SA:87116665"},{"name":"gare de Marne-la-Vallée-Chessy.","links":[],"coord":{"lat":"48.870599","lon":"2.782899"},"label":"gare de Marne-la-Vallée-Chessy. (Chessy)","administrative_regions":[{"insee":"77111","name":"Chessy","level":8,"coord":{"lat":"48.880978","lon":"2.767047"},"label":"Chessy (77700)","id":"admin:89553extern","zip_code":"77700"}],"timezone":"Europe/Paris","id":"stop_area:OCE:SA:87111849"},{"name":"gare de Balsieges-Bourg","links":[],"coord":{"lat":"44.482268","lon":"3.456858"},"label":"gare de Balsieges-Bourg (Balsièges)","administrative_regions":[{"insee":"48016","name":"Balsièges","level":8,"coord":{"lat":"44.482319","lon":"3.457584"},"label":"Balsièges (48000)","id":"admin:287419extern","zip_code":"48000"}],"timezone":"Europe/Paris","id":"stop_area:OCE:SA:87111864"},{"name":"gare de Paris-Est","links":[],"coord":{"lat":"48.876573","lon":"2.359169"},"label":"gare de Paris-Est (Paris)","administrative_regions":[{"insee":"75056","name":"Paris","level":8,"coord":{"lat":"48.856491","lon":"2.352156"},"label":"Paris (75001-75116)","id":"admin:7444extern","zip_code":"75001;75116"},{"insee":"75110","name":"Paris 10e Arrondissement","level":9,"coord":{"lat":"48.876106","lon":"2.35991"},"label":"Paris 10e Arrondissement (75010)","id":"admin:9528extern","zip_code":"75010"}],"timezone":"Europe/Paris","id":"stop_area:OCE:SA:87113001"},{"name":"gare de Pantin","links":[],"coord":{"lat":"48.897776","lon":"2.400426"},"label":"gare de Pantin (Pantin)","administrative_regions":[{"insee":"93055","name":"Pantin","level":8,"coord":{"lat":"48.896503","lon":"2.40198"},"label":"Pantin (93500)","id":"admin:67685extern","zip_code":"93500"}],"timezone":"Europe/Paris","id":"stop_area:OCE:SA:87113209"},{"name":"gare de Noisy-le-Sec","links":[],"coord":{"lat":"48.896705","lon":"2.45995"},"label":"gare de Noisy-le-Sec (Noisy-le-Sec)","administrative_regions":[{"insee":"93053","name":"Noisy-le-Sec","level":8,"coord":{"lat":"48.890575","lon":"2.45468"},"label":"Noisy-le-Sec (93130)","id":"admin:131216extern","zip_code":"93130"}],"timezone":"Europe/Paris","id":"stop_area:OCE:SA:87113217"},{"name":"gare de Bondy","links":[],"coord":{"lat":"48.894384","lon":"2.478754"},"label":"gare de Bondy (Bondy)","administrative_regions":[{"insee":"93010","name":"Bondy","level":8,"coord":{"lat":"48.903099","lon":"2.48291"},"label":"Bondy (93140)","id":"admin:158667extern","zip_code":"93140"}],"timezone":"Europe/Paris","id":"stop_area:OCE:SA:87113407"},{"name":"gare de Raincy-Villemom.-Montf","links":[],"coord":{"lat":"48.88928","lon":"2.512076"},"label":"gare de Raincy-Villemom.-Montf (Le Raincy)","administrative_regions":[{"insee":"93062","name":"Le Raincy","level":8,"coord":{"lat":"48.898666","lon":"2.515562"},"label":"Le Raincy (93340)","id":"admin:162337extern","zip_code":"93340"}],"timezone":"Europe/Paris","id":"stop_area:OCE:SA:87113472"},{"name":"gare de Gagny","links":[],"coord":{"lat":"48.883298","lon":"2.526951"},"label":"gare de Gagny (Gagny)","administrative_regions":[{"insee":"93032","name":"Gagny","level":8,"coord":{"lat":"48.884212","lon":"2.532148"},"label":"Gagny (93220)","id":"admin:162542extern","zip_code":"93220"}],"timezone":"Europe/Paris","id":"stop_area:OCE:SA:87113514"},{"name":"gare de Chénay-Gagny","links":[],"coord":{"lat":"48.87726","lon":"2.552627"},"label":"gare de Chénay-Gagny (Gagny)","administrative_regions":[{"insee":"93032","name":"Gagny","level":8,"coord":{"lat":"48.884212","lon":"2.532148"},"label":"Gagny (93220)","id":"admin:162542extern","zip_code":"93220"}],"timezone":"Europe/Paris","id":"stop_area:OCE:SA:87113522"},{"name":"gare de Rosny-Bois-Perrier","links":[],"coord":{"lat":"48.882706","lon":"2.481516"},"label":"gare de Rosny-Bois-Perrier (Rosny-sous-Bois)","administrative_regions":[{"insee":"93064","name":"Rosny-sous-Bois","level":8,"coord":{"lat":"48.876194","lon":"2.485636"},"label":"Rosny-sous-Bois (93110)","id":"admin:130580extern","zip_code":"93110"}],"timezone":"Europe/Paris","id":"stop_area:OCE:SA:87113696"},{"name":"gare de Rosny-sous-Bois","links":[],"coord":{"lat":"48.870739","lon":"2.48561"},"label":"gare de Rosny-sous-Bois (Rosny-sous-Bois)","administrative_regions":[{"insee":"93064","name":"Rosny-sous-Bois","level":8,"coord":{"lat":"48.876194","lon":"2.485636"},"label":"Rosny-sous-Bois (93110)","id":"admin:130580extern","zip_code":"93110"}],"timezone":"Europe/Paris","id":"stop_area:OCE:SA:87113704"},{"name":"gare de Frouard","links":[],"coord":{"lat":"48.7555","lon":"6.144244"},"label":"gare de Frouard (Frouard)","administrative_regions":[{"insee":"54215","name":"Frouard","level":8,"coord":{"lat":"48.760174","lon":"6.129378"},"label":"Frouard (54390)","id":"admin:75211extern","zip_code":"54390"}],"timezone":"Europe/Paris","id":"stop_area:OCE:SA:87141077"},{"name":"gare de Champigneulles","links":[],"coord":{"lat":"48.735049","lon":"6.169042"},"label":"gare de Champigneulles (Champigneulles)","administrative_regions":[{"insee":"54115","name":"Champigneulles","level":8,"coord":{"lat":"48.734222","lon":"6.165116"},"label":"Champigneulles (54250)","id":"admin:75321extern","zip_code":"54250"}],"timezone":"Europe/Paris","id":"stop_area:OCE:SA:87141085"},{"name":"gare de Laneuveville-devt-Nancy","links":[],"coord":{"lat":"48.655627","lon":"6.228014"},"label":"gare de Laneuveville-devt-Nancy (Laneuveville-devant-Nancy)","administrative_regions":[{"insee":"54300","name":"Laneuveville-devant-Nancy","level":8,"coord":{"lat":"48.6469","lon":"6.242109"},"label":"Laneuveville-devant-Nancy (54410)","id":"admin:52369extern","zip_code":"54410"}],"timezone":"Europe/Paris","id":"stop_area:OCE:SA:87141093"},{"name":"gare de Nogent-le-Perreux","links":[],"coord":{"lat":"48.838723","lon":"2.494096"},"label":"gare de Nogent-le-Perreux (Nogent-sur-Marne)","administrative_regions":[{"insee":"94052","name":"Nogent-sur-Marne","level":8,"coord":{"lat":"48.835304","lon":"2.481031"},"label":"Nogent-sur-Marne (94130)","id":"admin:109361extern","zip_code":"94130"}],"timezone":"Europe/Paris","id":"stop_area:OCE:SA:87113746"},{"name":"gare de Boullereaux-Champigny","links":[],"coord":{"lat":"48.824965","lon":"2.511914"},"label":"gare de Boullereaux-Champigny (Champigny-sur-Marne)","administrative_regions":[{"insee":"94017","name":"Champigny-sur-Marne","level":8,"coord":{"lat":"48.818302","lon":"2.514696"},"label":"Champigny-sur-Marne (94500)","id":"admin:106735extern","zip_code":"94500"}],"timezone":"Europe/Paris","id":"stop_area:OCE:SA:87113779"},{"name":"gare de Villiers/M.-Plessis-Tr.","links":[],"coord":{"lat":"48.823182","lon":"2.542343"},"label":"gare de Villiers/M.-Plessis-Tr. (Villiers-sur-Marne)","administrative_regions":[{"insee":"94079","name":"Villiers-sur-Marne","level":8,"coord":{"lat":"48.826206","lon":"2.540669"},"label":"Villiers-sur-Marne (94350)","id":"admin:108300extern","zip_code":"94350"}],"timezone":"Europe/Paris","id":"stop_area:OCE:SA:87113795"},{"name":"gare de Yvris-Noisy-le-Grand","links":[],"coord":{"lat":"48.823192","lon":"2.579815"},"label":"gare de Yvris-Noisy-le-Grand (Noisy-le-Grand)","administrative_regions":[{"insee":"93051","name":"Noisy-le-Grand","level":8,"coord":{"lat":"48.849396","lon":"2.551957"},"label":"Noisy-le-Grand (93160)","id":"admin:130492extern","zip_code":"93160"}],"timezone":"Europe/Paris","id":"stop_area:OCE:SA:87113803"},{"name":"gare de Les Coquetiers","links":[],"coord":{"lat":"48.892292","lon":"2.498348"},"label":"gare de Les Coquetiers (Villemomble)","administrative_regions":[{"insee":"93077","name":"Villemomble","level":8,"coord":{"lat":"48.884789","lon":"2.510509"},"label":"Villemomble (93250)","id":"admin:162329extern","zip_code":"93250"}],"timezone":"Europe/Paris","id":"stop_area:OCE:SA:87113845"},{"name":"gare de Les Pavillons-sous-Bois","links":[],"coord":{"lat":"48.902096","lon":"2.511424"},"label":"gare de Les Pavillons-sous-Bois (Les Pavillons-sous-Bois)","administrative_regions":[{"insee":"93057","name":"Les Pavillons-sous-Bois","level":8,"coord":{"lat":"48.908298","lon":"2.503499"},"label":"Les Pavillons-sous-Bois (93320)","id":"admin:162521extern","zip_code":"93320"}],"timezone":"Europe/Paris","id":"stop_area:OCE:SA:87113852"},{"name":"gare de Gargan","links":[],"coord":{"lat":"48.908235","lon":"2.517144"},"label":"gare de Gargan (Les Pavillons-sous-Bois)","administrative_regions":[{"insee":"93057","name":"Les Pavillons-sous-Bois","level":8,"coord":{"lat":"48.908298","lon":"2.503499"},"label":"Les Pavillons-sous-Bois (93320)","id":"admin:162521extern","zip_code":"93320"}],"timezone":"Europe/Paris","id":"stop_area:OCE:SA:87113860"},{"name":"gare de Allée-de-la-Tour-R.v.","links":[],"coord":{"lat":"48.897528","lon":"2.506815"},"label":"gare de Allée-de-la-Tour-R.v. (Villemomble)","administrative_regions":[{"insee":"93077","name":"Villemomble","level":8,"coord":{"lat":"48.884789","lon":"2.510509"},"label":"Villemomble (93250)","id":"admin:162329extern","zip_code":"93250"}],"timezone":"Europe/Paris","id":"stop_area:OCE:SA:87113878"},{"name":"gare de L'Abbaye","links":[],"coord":{"lat":"48.922291","lon":"2.516879"},"label":"gare de L'Abbaye (Livry-Gargan)","administrative_regions":[{"insee":"93046","name":"Livry-Gargan","level":8,"coord":{"lat":"48.917336","lon":"2.529885"},"label":"Livry-Gargan (93190)","id":"admin:162566extern","zip_code":"93190"}],"timezone":"Europe/Paris","id":"stop_area:OCE:SA:87113886"},{"name":"gare de Freinville-Sevran","links":[],"coord":{"lat":"48.926611","lon":"2.519049"},"label":"gare de Freinville-Sevran (Sevran)","administrative_regions":[{"insee":"93071","name":"Sevran","level":8,"coord":{"lat":"48.93755","lon":"2.529811"},"label":"Sevran (93270)","id":"admin:162527extern","zip_code":"93270"}],"timezone":"Europe/Paris","id":"stop_area:OCE:SA:87113894"},{"name":"gare de Champbenoist-Poigny","links":[],"coord":{"lat":"48.545351","lon":"3.287074"},"label":"gare de Champbenoist-Poigny (Poigny)","administrative_regions":[{"insee":"77368","name":"Poigny","level":8,"coord":{"lat":"48.539383","lon":"3.282523"},"label":"Poigny (77160)","id":"admin:413193extern","zip_code":"77160"}],"timezone":"Europe/Paris","id":"stop_area:OCE:SA:87115873"},{"name":"gare de Gretz-Armainvilliers","links":[],"coord":{"lat":"48.745705","lon":"2.728386"},"label":"gare de Gretz-Armainvilliers (Gretz-Armainvilliers)","administrative_regions":[{"insee":"77215","name":"Gretz-Armainvilliers","level":8,"coord":{"lat":"48.741489","lon":"2.72963"},"label":"Gretz-Armainvilliers (77220)","id":"admin:409480extern","zip_code":"77220"}],"timezone":"Europe/Paris","id":"stop_area:OCE:SA:87116012"},{"name":"gare de Ozoir-la-Ferrière","links":[],"coord":{"lat":"48.770714","lon":"2.689957"},"label":"gare de Ozoir-la-Ferrière (Ozoir-la-Ferrière)","administrative_regions":[{"insee":"77350","name":"Ozoir-la-Ferrière","level":8,"coord":{"lat":"48.763523","lon":"2.675819"},"label":"Ozoir-la-Ferrière (77330)","id":"admin:403076extern","zip_code":"77330"}],"timezone":"Europe/Paris","id":"stop_area:OCE:SA:87116020"},{"name":"gare de Roissy-en-Brie","links":[],"coord":{"lat":"48.795409","lon":"2.64987"},"label":"gare de Roissy-en-Brie (Roissy-en-Brie)","administrative_regions":[{"insee":"77390","name":"Roissy-en-Brie","level":8,"coord":{"lat":"48.790897","lon":"2.66082"},"label":"Roissy-en-Brie (77680)","id":"admin:403963extern","zip_code":"77680"}],"timezone":"Europe/Paris","id":"stop_area:OCE:SA:87116038"},{"name":"gare de Emerainville-Pontault-C","links":[],"coord":{"lat":"48.806327","lon":"2.618231"},"label":"gare de Emerainville-Pontault-C (Émerainville)","administrative_regions":[{"insee":"77169","name":"Émerainville","level":8,"coord":{"lat":"48.809471","lon":"2.621391"},"label":"Émerainville (77184)","id":"admin:402795extern","zip_code":"77184"}],"timezone":"Europe/Paris","id":"stop_area:OCE:SA:87116046"},{"name":"gare de Verneuil-l'Etang","links":[],"coord":{"lat":"48.644845","lon":"2.824684"},"label":"gare de Verneuil-l'Etang (Verneuil-l'Étang)","administrative_regions":[{"insee":"77493","name":"Verneuil-l'Étang","level":8,"coord":{"lat":"48.643764","lon":"2.833901"},"label":"Verneuil-l'Étang (77390)","id":"admin:80869extern","zip_code":"77390"}],"timezone":"Europe/Paris","id":"stop_area:OCE:SA:87116079"},{"name":"gare de Mormant","links":[],"coord":{"lat":"48.613224","lon":"2.889501"},"label":"gare de Mormant (Mormant)","administrative_regions":[{"insee":"77317","name":"Mormant","level":8,"coord":{"lat":"48.606972","lon":"2.884851"},"label":"Mormant (77720)","id":"admin:412941extern","zip_code":"77720"}],"timezone":"Europe/Paris","id":"stop_area:OCE:SA:87116087"},{"name":"gare de Nangis","links":[],"coord":{"lat":"48.561488","lon":"3.01243"},"label":"gare de Nangis (Nangis)","administrative_regions":[{"insee":"77327","name":"Nangis","level":8,"coord":{"lat":"48.553905","lon":"3.008326"},"label":"Nangis (77370)","id":"admin:1384426extern","zip_code":"77370"}],"timezone":"Europe/Paris","id":"stop_area:OCE:SA:87116095"},{"name":"gare de Meaux","links":[],"coord":{"lat":"48.957489","lon":"2.874004"},"label":"gare de Meaux (Meaux)","administrative_regions":[{"insee":"77284","name":"Meaux","level":8,"coord":{"lat":"48.958916","lon":"2.896486"},"label":"Meaux (77100)","id":"admin:86609extern","zip_code":"77100"}],"timezone":"Europe/Paris","id":"stop_area:OCE:SA:87116103"},{"name":"gare de Chelles-Gournay","links":[],"coord":{"lat":"48.874344","lon":"2.582521"},"label":"gare de Chelles-Gournay (Chelles)","administrative_regions":[{"insee":"77108","name":"Chelles","level":8,"coord":{"lat":"48.879742","lon":"2.594212"},"label":"Chelles (77500)","id":"admin:402614extern","zip_code":"77500"}],"timezone":"Europe/Paris","id":"stop_area:OCE:SA:87116111"},{"name":"gare de Longueville (S.-et-M.)","links":[],"coord":{"lat":"48.513505","lon":"3.249703"},"label":"gare de Longueville (S.-et-M.) (Longueville)","administrative_regions":[{"insee":"77260","name":"Longueville","level":8,"coord":{"lat":"48.514503","lon":"3.245026"},"label":"Longueville (77650)","id":"admin:409386extern","zip_code":"77650"}],"timezone":"Europe/Paris","id":"stop_area:OCE:SA:87116137"},{"name":"gare de Provins","links":[],"coord":{"lat":"48.555688","lon":"3.302864"},"label":"gare de Provins (Provins)","administrative_regions":[{"insee":"77379","name":"Provins","level":8,"coord":{"lat":"48.561256","lon":"3.297392"},"label":"Provins (77160)","id":"admin:402221extern","zip_code":"77160"}],"timezone":"Europe/Paris","id":"stop_area:OCE:SA:87116160"},{"name":"gare de Ste-Colombe-Septveilles","links":[],"coord":{"lat":"48.530169","lon":"3.257236"},"label":"gare de Ste-Colombe-Septveilles (Sainte-Colombe)","administrative_regions":[{"insee":"77404","name":"Sainte-Colombe","level":8,"coord":{"lat":"48.531597","lon":"3.255198"},"label":"Sainte-Colombe (77650)","id":"admin:402234extern","zip_code":"77650"}],"timezone":"Europe/Paris","id":"stop_area:OCE:SA:87116178"},{"name":"gare de Tournan","links":[],"coord":{"lat":"48.739199","lon":"2.759416"},"label":"gare de Tournan (Tournan-en-Brie)","administrative_regions":[{"insee":"77470","name":"Tournan-en-Brie","level":8,"coord":{"lat":"48.741577","lon":"2.767935"},"label":"Tournan-en-Brie (77220)","id":"admin:409493extern","zip_code":"77220"}],"timezone":"Europe/Paris","id":"stop_area:OCE:SA:87116210"},{"name":"gare de Marles-en-Brie","links":[],"coord":{"lat":"48.735413","lon":"2.869345"},"label":"gare de Marles-en-Brie (La Houssaye-en-Brie)","administrative_regions":[{"insee":"77229","name":"La Houssaye-en-Brie","level":8,"coord":{"lat":"48.7537","lon":"2.875146"},"label":"La Houssaye-en-Brie (77610)","id":"admin:1377529extern","zip_code":"77610"}],"timezone":"Europe/Paris","id":"stop_area:OCE:SA:87116228"},{"name":"gare de Mortcerf","links":[],"coord":{"lat":"48.789345","lon":"2.907728"},"label":"gare de Mortcerf (Mortcerf)","administrative_regions":[{"insee":"77318","name":"Mortcerf","level":8,"coord":{"lat":"48.788437","lon":"2.917497"},"label":"Mortcerf (77163)","id":"admin:414478extern","zip_code":"77163"}],"timezone":"Europe/Paris","id":"stop_area:OCE:SA:87116244"},{"name":"gare de Guérard-Celle-sur-Morin","links":[],"coord":{"lat":"48.810593","lon":"2.954529"},"label":"gare de Guérard-Celle-sur-Morin (Guérard)","administrative_regions":[{"insee":"77219","name":"Guérard","level":8,"coord":{"lat":"48.823776","lon":"2.95691"},"label":"Guérard (77580)","id":"admin:1379446extern","zip_code":"77580"}],"timezone":"Europe/Paris","id":"stop_area:OCE:SA:87116269"},{"name":"gare de Faremoutiers-Pommeuse","links":[],"coord":{"lat":"48.808507","lon":"2.993369"},"label":"gare de Faremoutiers-Pommeuse (Pommeuse)","administrative_regions":[{"insee":"77371","name":"Pommeuse","level":8,"coord":{"lat":"48.817726","lon":"3.002524"},"label":"Pommeuse (77515)","id":"admin:1379512extern","zip_code":"77515"}],"timezone":"Europe/Paris","id":"stop_area:OCE:SA:87116277"},{"name":"gare de Mouroux","links":[],"coord":{"lat":"48.81355","lon":"3.043338"},"label":"gare de Mouroux (Mouroux)","administrative_regions":[{"insee":"77320","name":"Mouroux","level":8,"coord":{"lat":"48.8246","lon":"3.053088"},"label":"Mouroux (77120)","id":"admin:408316extern","zip_code":"77120"}],"timezone":"Europe/Paris","id":"stop_area:OCE:SA:87116285"},{"name":"gare de Vaires-Torcy","links":[],"coord":{"lat":"48.875237","lon":"2.639711"},"label":"gare de Vaires-Torcy (Vaires-sur-Marne)","administrative_regions":[{"insee":"77479","name":"Vaires-sur-Marne","level":8,"coord":{"lat":"48.870701","lon":"2.633385"},"label":"Vaires-sur-Marne (77360)","id":"admin:402741extern","zip_code":"77360"}],"timezone":"Europe/Paris","id":"stop_area:OCE:SA:87116293"},{"name":"gare de Coulommiers","links":[],"coord":{"lat":"48.807768","lon":"3.08207"},"label":"gare de Coulommiers (Coulommiers)","administrative_regions":[{"insee":"77131","name":"Coulommiers","level":8,"coord":{"lat":"48.809464","lon":"3.084808"},"label":"Coulommiers (77120)","id":"admin:74354extern","zip_code":"77120"}],"timezone":"Europe/Paris","id":"stop_area:OCE:SA:87116301"},{"name":"gare de Lagny-Thorigny","links":[],"coord":{"lat":"48.882012","lon":"2.704124"},"label":"gare de Lagny-Thorigny (Thorigny-sur-Marne)","administrative_regions":[{"insee":"77464","name":"Thorigny-sur-Marne","level":8,"coord":{"lat":"48.885723","lon":"2.712864"},"label":"Thorigny-sur-Marne (77400)","id":"admin:403821extern","zip_code":"77400"}],"timezone":"Europe/Paris","id":"stop_area:OCE:SA:87116319"},{"name":"gare de Esbly","links":[],"coord":{"lat":"48.903035","lon":"2.81058"},"label":"gare de Esbly (Esbly)","administrative_regions":[{"insee":"77171","name":"Esbly","level":8,"coord":{"lat":"48.9021","lon":"2.81251"},"label":"Esbly (77450)","id":"admin:954547extern","zip_code":"77450"}],"timezone":"Europe/Paris","id":"stop_area:OCE:SA:87116327"},{"name":"gare de Montry-Condé","links":[],"coord":{"lat":"48.890812","lon":"2.826251"},"label":"gare de Montry-Condé (Montry)","administrative_regions":[{"insee":"77315","name":"Montry","level":8,"coord":{"lat":"48.884998","lon":"2.82354"},"label":"Montry (77450)","id":"admin:406915extern","zip_code":"77450"}],"timezone":"Europe/Paris","id":"stop_area:OCE:SA:87116400"},{"name":"gare de Trilport","links":[],"coord":{"lat":"48.960074","lon":"2.94938"},"label":"gare de Trilport (Trilport)","administrative_regions":[{"insee":"77475","name":"Trilport","level":8,"coord":{"lat":"48.958599","lon":"2.947107"},"label":"Trilport (77470)","id":"admin:86611extern","zip_code":"77470"}],"timezone":"Europe/Paris","id":"stop_area:OCE:SA:87116491"},{"name":"gare de Changis-St-Jean","links":[],"coord":{"lat":"48.959334","lon":"3.025634"},"label":"gare de Changis-St-Jean (Changis-sur-Marne)","administrative_regions":[{"insee":"77084","name":"Changis-sur-Marne","level":8,"coord":{"lat":"48.958801","lon":"3.014272"},"label":"Changis-sur-Marne (77660)","id":"admin:87686extern","zip_code":"77660"}],"timezone":"Europe/Paris","id":"stop_area:OCE:SA:87116509"},{"name":"gare de La Ferté-sous-Jouarre","links":[],"coord":{"lat":"48.950772","lon":"3.125433"},"label":"gare de La Ferté-sous-Jouarre (La Ferté-sous-Jouarre)","administrative_regions":[{"insee":"77183","name":"La Ferté-sous-Jouarre","level":8,"coord":{"lat":"48.952499","lon":"3.131089"},"label":"La Ferté-sous-Jouarre (77260)","id":"admin:409302extern","zip_code":"77260"}],"timezone":"Europe/Paris","id":"stop_area:OCE:SA:87116517"},{"name":"gare de Nanteuil-Saacy","links":[],"coord":{"lat":"48.973964","lon":"3.219546"},"label":"gare de Nanteuil-Saacy (Saâcy-sur-Marne)","administrative_regions":[{"insee":"77397","name":"Saâcy-sur-Marne","level":8,"coord":{"lat":"48.962658","lon":"3.212006"},"label":"Saâcy-sur-Marne (77730)","id":"admin:412851extern","zip_code":"77730"}],"timezone":"Europe/Paris","id":"stop_area:OCE:SA:87116558"},{"name":"gare de Nogent-l'Artaud-Charly","links":[],"coord":{"lat":"48.968768","lon":"3.322956"},"label":"gare de Nogent-l'Artaud-Charly (Nogent-l'Artaud)","administrative_regions":[{"insee":"02555","name":"Nogent-l'Artaud","level":8,"coord":{"lat":"48.966946","lon":"3.322738"},"label":"Nogent-l'Artaud (2310)","id":"admin:2953123extern","zip_code":"02310"}],"timezone":"Europe/Paris","id":"stop_area:OCE:SA:87116566"},{"name":"gare de Chézy-sur-Marne","links":[],"coord":{"lat":"48.991848","lon":"3.364311"},"label":"gare de Chézy-sur-Marne (Chézy-sur-Marne)","administrative_regions":[{"insee":"02186","name":"Chézy-sur-Marne","level":8,"coord":{"lat":"48.989601","lon":"3.36561"},"label":"Chézy-sur-Marne (2570)","id":"admin:1740406extern","zip_code":"02570"}],"timezone":"Europe/Paris","id":"stop_area:OCE:SA:87116574"},{"name":"gare de Château-Thierry","links":[],"coord":{"lat":"49.038167","lon":"3.409288"},"label":"gare de Château-Thierry (Château-Thierry)","administrative_regions":[{"insee":"02168","name":"Château-Thierry","level":8,"coord":{"lat":"49.043972","lon":"3.402989"},"label":"Château-Thierry (2400)","id":"admin:74171extern","zip_code":"02400"}],"timezone":"Europe/Paris","id":"stop_area:OCE:SA:87116582"},{"name":"gare de Isles-Armentières-Cong.","links":[],"coord":{"lat":"48.998074","lon":"3.007111"},"label":"gare de Isles-Armentières-Cong. (Isles-les-Meldeuses)","administrative_regions":[{"insee":"77231","name":"Isles-les-Meldeuses","level":8,"coord":{"lat":"48.99884","lon":"3.003241"},"label":"Isles-les-Meldeuses (77440)","id":"admin:86616extern","zip_code":"77440"}],"timezone":"Europe/Paris","id":"stop_area:OCE:SA:87116616"},{"name":"gare de Lizy-sur-Ourcq","links":[],"coord":{"lat":"49.021542","lon":"3.031614"},"label":"gare de Lizy-sur-Ourcq (Lizy-sur-Ourcq)","administrative_regions":[{"insee":"77257","name":"Lizy-sur-Ourcq","level":8,"coord":{"lat":"49.027103","lon":"3.022144"},"label":"Lizy-sur-Ourcq (77440)","id":"admin:76387extern","zip_code":"77440"}],"timezone":"Europe/Paris","id":"stop_area:OCE:SA:87116632"},{"name":"gare de Mont-Notre-Dame","links":[],"coord":{"lat":"49.296662","lon":"3.576558"},"label":"gare de Mont-Notre-Dame (Mont-Notre-Dame)","administrative_regions":[{"insee":"02520","name":"Mont-Notre-Dame","level":8,"coord":{"lat":"49.2952","lon":"3.5834"},"label":"Mont-Notre-Dame (2220)","id":"admin:419161extern","zip_code":"02220"}],"timezone":"Europe/Paris","id":"stop_area:OCE:SA:87171355"},{"name":"gare de Fère-en-Tardenois","links":[],"coord":{"lat":"49.208558","lon":"3.504286"},"label":"gare de Fère-en-Tardenois (Fère-en-Tardenois)","administrative_regions":[{"insee":"02305","name":"Fère-en-Tardenois","level":8,"coord":{"lat":"49.18718","lon":"3.510822"},"label":"Fère-en-Tardenois (2130)","id":"admin:2956632extern","zip_code":"02130"}],"timezone":"Europe/Paris","id":"stop_area:OCE:SA:87171371"},{"name":"gare de Bazancourt","links":[],"coord":{"lat":"49.360988","lon":"4.173974"},"label":"gare de Bazancourt (Bazancourt)","administrative_regions":[{"insee":"51043","name":"Bazancourt","level":8,"coord":{"lat":"49.36319","lon":"4.171222"},"label":"Bazancourt (51110)","id":"admin:2597283extern","zip_code":"51110"}],"timezone":"Europe/Paris","id":"stop_area:OCE:SA:87171462"},{"name":"gare de Dormans","links":[],"coord":{"lat":"49.079244","lon":"3.641749"},"label":"gare de Dormans (Dormans)","administrative_regions":[{"insee":"51217","name":"Dormans","level":8,"coord":{"lat":"49.074612","lon":"3.638102"},"label":"Dormans (51700)","id":"admin:1773030extern","zip_code":"51700"}],"timezone":"Europe/Paris","id":"stop_area:OCE:SA:87171512"},{"name":"gare de Epernay","links":[],"coord":{"lat":"49.046512","lon":"3.960227"},"label":"gare de Epernay (Épernay)","administrative_regions":[{"insee":"51230","name":"Épernay","level":8,"coord":{"lat":"49.043617","lon":"3.955159"},"label":"Épernay (51200)","id":"admin:417327extern","zip_code":"51200"}],"timezone":"Europe/Paris","id":"stop_area:OCE:SA:87171553"},{"name":"gare de La Ferté-Milon","links":[],"coord":{"lat":"49.179556","lon":"3.121052"},"label":"gare de La Ferté-Milon (La Ferté-Milon)","administrative_regions":[{"insee":"02307","name":"La Ferté-Milon","level":8,"coord":{"lat":"49.178356","lon":"3.125912"},"label":"La Ferté-Milon (2460)","id":"admin:2955237extern","zip_code":"02460"}],"timezone":"Europe/Paris","id":"stop_area:OCE:SA:87116673"},{"name":"gare de Neuilly-St-Front","links":[],"coord":{"lat":"49.18709","lon":"3.270765"},"label":"gare de Neuilly-St-Front (Vichel-Nanteuil)","administrative_regions":[{"insee":"02796","name":"Vichel-Nanteuil","level":8,"coord":{"lat":"49.187599","lon":"3.28992"},"label":"Vichel-Nanteuil (2210)","id":"admin:2954980extern","zip_code":"02210"}],"timezone":"Europe/Paris","id":"stop_area:OCE:SA:87116681"},{"name":"gare de Oulchy-Brény","links":[],"coord":{"lat":"49.187628","lon":"3.352574"},"label":"gare de Oulchy-Brény (Breny)","administrative_regions":[{"insee":"02121","name":"Breny","level":8,"coord":{"lat":"49.185577","lon":"3.353147"},"label":"Breny (2210)","id":"admin:412070extern","zip_code":"02210"}],"timezone":"Europe/Paris","id":"stop_area:OCE:SA:87116699"},{"name":"gare de Couilly-St-Germ.-Quincy","links":[],"coord":{"lat":"48.882651","lon":"2.854083"},"label":"gare de Couilly-St-Germ.-Quincy (Saint-Germain-sur-Morin)","administrative_regions":[{"insee":"77413","name":"Saint-Germain-sur-Morin","level":8,"coord":{"lat":"48.880856","lon":"2.849315"},"label":"Saint-Germain-sur-Morin (77860)","id":"admin:1380624extern","zip_code":"77860"}],"timezone":"Europe/Paris","id":"stop_area:OCE:SA:87116731"},{"name":"gare de Villiers-Montbarbin","links":[],"coord":{"lat":"48.863153","lon":"2.882985"},"label":"gare de Villiers-Montbarbin (Crécy-la-Chapelle)","administrative_regions":[{"insee":"77142","name":"Crécy-la-Chapelle","level":8,"coord":{"lat":"48.855312","lon":"2.933841"},"label":"Crécy-la-Chapelle (77580)","id":"admin:1302682extern","zip_code":"77580"}],"timezone":"Europe/Paris","id":"stop_area:OCE:SA:87116749"},{"name":"gare de Crécy-la-Chapelle","links":[],"coord":{"lat":"48.859542","lon":"2.905749"},"label":"gare de Crécy-la-Chapelle (Crécy-la-Chapelle)","administrative_regions":[{"insee":"77142","name":"Crécy-la-Chapelle","level":8,"coord":{"lat":"48.855312","lon":"2.933841"},"label":"Crécy-la-Chapelle (77580)","id":"admin:1302682extern","zip_code":"77580"}],"timezone":"Europe/Paris","id":"stop_area:OCE:SA:87116772"},{"name":"gare de Troyes","links":[],"coord":{"lat":"48.295018","lon":"4.065398"},"label":"gare de Troyes (Troyes)","administrative_regions":[{"insee":"10387","name":"Troyes","level":8,"coord":{"lat":"48.297161","lon":"4.074625"},"label":"Troyes (10000)","id":"admin:414972extern","zip_code":"10000"}],"timezone":"Europe/Paris","id":"stop_area:OCE:SA:87118000"},{"name":"gare de Romilly-sur-Seine","links":[],"coord":{"lat":"48.514164","lon":"3.72835"},"label":"gare de Romilly-sur-Seine (Romilly-sur-Seine)","administrative_regions":[{"insee":"10323","name":"Romilly-sur-Seine","level":8,"coord":{"lat":"48.520298","lon":"3.71823"},"label":"Romilly-sur-Seine (10100)","id":"admin:2006924extern","zip_code":"10100"}],"timezone":"Europe/Paris","id":"stop_area:OCE:SA:87118158"},{"name":"gare de Nogent-sur-Seine","links":[],"coord":{"lat":"48.497829","lon":"3.493726"},"label":"gare de Nogent-sur-Seine (Nogent-sur-Seine)","administrative_regions":[{"insee":"10268","name":"Nogent-sur-Seine","level":8,"coord":{"lat":"48.497101","lon":"3.500409"},"label":"Nogent-sur-Seine (10400)","id":"admin:2046325extern","zip_code":"10400"}],"timezone":"Europe/Paris","id":"stop_area:OCE:SA:87118190"},{"name":"gare de Vendeuvre (Aube)","links":[],"coord":{"lat":"48.240322","lon":"4.467197"},"label":"gare de Vendeuvre (Aube) (Vendeuvre-sur-Barse)","administrative_regions":[{"insee":"10401","name":"Vendeuvre-sur-Barse","level":8,"coord":{"lat":"48.238426","lon":"4.46662"},"label":"Vendeuvre-sur-Barse (10140)","id":"admin:2995497extern","zip_code":"10140"}],"timezone":"Europe/Paris","id":"stop_area:OCE:SA:87118257"},{"name":"gare de Bar-sur-Aube","links":[],"coord":{"lat":"48.238534","lon":"4.706847"},"label":"gare de Bar-sur-Aube (Bar-sur-Aube)","administrative_regions":[{"insee":"10033","name":"Bar-sur-Aube","level":8,"coord":{"lat":"48.233204","lon":"4.705833"},"label":"Bar-sur-Aube (10200)","id":"admin:2808167extern","zip_code":"10200"}],"timezone":"Europe/Paris","id":"stop_area:OCE:SA:87118299"},{"name":"gare de Brion-Montréal-La Cluse","links":[],"coord":{"lat":"46.175774","lon":"5.558511"},"label":"gare de Brion-Montréal-La Cluse (Brion)","administrative_regions":[{"insee":"01063","name":"Brion","level":8,"coord":{"lat":"46.172699","lon":"5.55309"},"label":"Brion (1460)","id":"admin:140522extern","zip_code":"01460"}],"timezone":"Europe/Paris","id":"stop_area:OCE:SA:87131961"},{"name":"gare de Nancy-Ville","links":[],"coord":{"lat":"48.689758","lon":"6.174267"},"label":"gare de Nancy-Ville (Nancy)","administrative_regions":[{"insee":"54395","name":"Nancy","level":8,"coord":{"lat":"48.693722","lon":"6.183409"},"label":"Nancy (54000)","id":"admin:52399extern","zip_code":"54000"}],"timezone":"Europe/Paris","id":"stop_area:OCE:SA:87141002"},{"name":"gare de Jarville-la-Malgrange","links":[],"coord":{"lat":"48.669925","lon":"6.202207"},"label":"gare de Jarville-la-Malgrange (Jarville-la-Malgrange)","administrative_regions":[{"insee":"54274","name":"Jarville-la-Malgrange","level":8,"coord":{"lat":"48.668007","lon":"6.205774"},"label":"Jarville-la-Malgrange (54140)","id":"admin:52372extern","zip_code":"54140"}],"timezone":"Europe/Paris","id":"stop_area:OCE:SA:87141010"},{"name":"gare de Foug","links":[],"coord":{"lat":"48.679126","lon":"5.791508"},"label":"gare de Foug (Foug)","administrative_regions":[{"insee":"54205","name":"Foug","level":8,"coord":{"lat":"48.683807","lon":"5.786739"},"label":"Foug (54570)","id":"admin:2374139extern","zip_code":"54570"}],"timezone":"Europe/Paris","id":"stop_area:OCE:SA:87141036"},{"name":"gare de Toul","links":[],"coord":{"lat":"48.679018","lon":"5.880577"},"label":"gare de Toul (Toul)","administrative_regions":[{"insee":"54528","name":"Toul","level":8,"coord":{"lat":"48.676262","lon":"5.894175"},"label":"Toul (54200)","id":"admin:113079extern","zip_code":"54200"}],"timezone":"Europe/Paris","id":"stop_area:OCE:SA:87141044"},{"name":"gare de Fontenoy-sur-Moselle","links":[],"coord":{"lat":"48.711428","lon":"5.980135"},"label":"gare de Fontenoy-sur-Moselle (Fontenoy-sur-Moselle)","administrative_regions":[{"insee":"54202","name":"Fontenoy-sur-Moselle","level":8,"coord":{"lat":"48.712399","lon":"5.981299"},"label":"Fontenoy-sur-Moselle (54840)","id":"admin:1793280extern","zip_code":"54840"}],"timezone":"Europe/Paris","id":"stop_area:OCE:SA:87141051"},{"name":"gare de Liverdun","links":[],"coord":{"lat":"48.749372","lon":"6.061634"},"label":"gare de Liverdun (Liverdun)","administrative_regions":[{"insee":"54318","name":"Liverdun","level":8,"coord":{"lat":"48.749496","lon":"6.063003"},"label":"Liverdun (54460)","id":"admin:113073extern","zip_code":"54460"}],"timezone":"Europe/Paris","id":"stop_area:OCE:SA:87141069"},{"name":"gare de Haybes","links":[],"coord":{"lat":"50.011728","lon":"4.703951"},"label":"gare de Haybes (Haybes)","administrative_regions":[{"insee":"08222","name":"Haybes","level":8,"coord":{"lat":"50.010197","lon":"4.705485"},"label":"Haybes (8170)","id":"admin:1804313extern","zip_code":"08170"}],"timezone":"Europe/Paris","id":"stop_area:OCE:SA:87172106"},{"name":"gare de Vireux-Molhain","links":[],"coord":{"lat":"50.082859","lon":"4.723179"},"label":"gare de Vireux-Molhain (Vireux-Molhain)","administrative_regions":[{"insee":"08486","name":"Vireux-Molhain","level":8,"coord":{"lat":"50.084579","lon":"4.723894"},"label":"Vireux-Molhain (8320)","id":"admin:1742930extern","zip_code":"08320"}],"timezone":"Europe/Paris","id":"stop_area:OCE:SA:87172114"},{"name":"gare de Aubrives","links":[],"coord":{"lat":"50.10365","lon":"4.760938"},"label":"gare de Aubrives (Aubrives)","administrative_regions":[{"insee":"08028","name":"Aubrives","level":8,"coord":{"lat":"50.103203","lon":"4.762525"},"label":"Aubrives (8320)","id":"admin:1336048extern","zip_code":"08320"}],"timezone":"Europe/Paris","id":"stop_area:OCE:SA:87172122"},{"name":"gare de Givet","links":[],"coord":{"lat":"50.14024","lon":"4.817985"},"label":"gare de Givet (Givet)","administrative_regions":[{"insee":"08190","name":"Givet","level":8,"coord":{"lat":"50.137691","lon":"4.82374"},"label":"Givet (8600)","id":"admin:1336057extern","zip_code":"08600"}],"timezone":"Europe/Paris","id":"stop_area:OCE:SA:87172130"},{"name":"gare de Mohon","links":[],"coord":{"lat":"49.752632","lon":"4.733285"},"label":"gare de Mohon (Charleville-Mézières)","administrative_regions":[{"insee":"08105","name":"Charleville-Mézières","level":8,"coord":{"lat":"49.759937","lon":"4.718693"},"label":"Charleville-Mézières (8000)","id":"admin:153838extern","zip_code":"08000"}],"timezone":"Europe/Paris","id":"stop_area:OCE:SA:87172155"},{"name":"gare de Varangéville-St-Nicolas","links":[],"coord":{"lat":"48.635315","lon":"6.312844"},"label":"gare de Varangéville-St-Nicolas (Varangéville)","administrative_regions":[{"insee":"54549","name":"Varangéville","level":8,"coord":{"lat":"48.63752","lon":"6.31815"},"label":"Varangéville (54110)","id":"admin:1876908extern","zip_code":"54110"}],"timezone":"Europe/Paris","id":"stop_area:OCE:SA:87141101"},{"name":"gare de Dombasle-sur-Meurthe","links":[],"coord":{"lat":"48.623319","lon":"6.343521"},"label":"gare de Dombasle-sur-Meurthe (Dombasle-sur-Meurthe)","administrative_regions":[{"insee":"54159","name":"Dombasle-sur-Meurthe","level":8,"coord":{"lat":"48.621201","lon":"6.36106"},"label":"Dombasle-sur-Meurthe (54110)","id":"admin:1815323extern","zip_code":"54110"}],"timezone":"Europe/Paris","id":"stop_area:OCE:SA:87141119"},{"name":"gare de Rosières-aux-Salines","links":[],"coord":{"lat":"48.605401","lon":"6.350625"},"label":"gare de Rosières-aux-Salines (Dombasle-sur-Meurthe)","administrative_regions":[{"insee":"54159","name":"Dombasle-sur-Meurthe","level":8,"coord":{"lat":"48.621201","lon":"6.36106"},"label":"Dombasle-sur-Meurthe (54110)","id":"admin:1815323extern","zip_code":"54110"}],"timezone":"Europe/Paris","id":"stop_area:OCE:SA:87141127"},{"name":"gare de Blainville-Damelevières","links":[],"coord":{"lat":"48.564891","lon":"6.386712"},"label":"gare de Blainville-Damelevières (Damelevières)","administrative_regions":[{"insee":"54152","name":"Damelevières","level":8,"coord":{"lat":"48.558445","lon":"6.388134"},"label":"Damelevières (54360)","id":"admin:1397161extern","zip_code":"54360"}],"timezone":"Europe/Paris","id":"stop_area:OCE:SA:87141135"},{"name":"gare de Mont-sur-Meurthe","links":[],"coord":{"lat":"48.559923","lon":"6.449831"},"label":"gare de Mont-sur-Meurthe (Mont-sur-Meurthe)","administrative_regions":[{"insee":"54383","name":"Mont-sur-Meurthe","level":8,"coord":{"lat":"48.556099","lon":"6.444099"},"label":"Mont-sur-Meurthe (54360)","id":"admin:1424232extern","zip_code":"54360"}],"timezone":"Europe/Paris","id":"stop_area:OCE:SA:87141143"},{"name":"gare de Lunéville","links":[],"coord":{"lat":"48.587971","lon":"6.497025"},"label":"gare de Lunéville (Lunéville)","administrative_regions":[{"insee":"54329","name":"Lunéville","level":8,"coord":{"lat":"48.589462","lon":"6.501377"},"label":"Lunéville (54300)","id":"admin:88915extern","zip_code":"54300"}],"timezone":"Europe/Paris","id":"stop_area:OCE:SA:87141150"},{"name":"gare de Einvaux","links":[],"coord":{"lat":"48.503575","lon":"6.393211"},"label":"gare de Einvaux (Einvaux)","administrative_regions":[{"insee":"54175","name":"Einvaux","level":8,"coord":{"lat":"48.4902","lon":"6.396899"},"label":"Einvaux (54360)","id":"admin:1707907extern","zip_code":"54360"}],"timezone":"Europe/Paris","id":"stop_area:OCE:SA:87141200"},{"name":"gare de Bayon","links":[],"coord":{"lat":"48.468026","lon":"6.32289"},"label":"gare de Bayon (Virecourt)","administrative_regions":[{"insee":"54585","name":"Virecourt","level":8,"coord":{"lat":"48.462433","lon":"6.32031"},"label":"Virecourt (54290)","id":"admin:2623804extern","zip_code":"54290"}],"timezone":"Europe/Paris","id":"stop_area:OCE:SA:87141218"},{"name":"gare de Neufchâteau","links":[],"coord":{"lat":"48.357239","lon":"5.69018"},"label":"gare de Neufchâteau (Neufchâteau)","administrative_regions":[{"insee":"88321","name":"Neufchâteau","level":8,"coord":{"lat":"48.355301","lon":"5.694857"},"label":"Neufchâteau (88300)","id":"admin:936636extern","zip_code":"88300"}],"timezone":"Europe/Paris","id":"stop_area:OCE:SA:87141291"},{"name":"gare de St-Clément-Laronxe","links":[],"coord":{"lat":"48.531422","lon":"6.607823"},"label":"gare de St-Clément-Laronxe (Saint-Clément)","administrative_regions":[{"insee":"54472","name":"Saint-Clément","level":8,"coord":{"lat":"48.532124","lon":"6.603751"},"label":"Saint-Clément (54950)","id":"admin:113054extern","zip_code":"54950"}],"timezone":"Europe/Paris","id":"stop_area:OCE:SA:87141374"},{"name":"gare de Chenevières","links":[],"coord":{"lat":"48.51952","lon":"6.632435"},"label":"gare de Chenevières (Chenevières)","administrative_regions":[{"insee":"54125","name":"Chenevières","level":8,"coord":{"lat":"48.519047","lon":"6.629311"},"label":"Chenevières (54122)","id":"admin:113060extern","zip_code":"54122"}],"timezone":"Europe/Paris","id":"stop_area:OCE:SA:87141382"},{"name":"gare de Ménil-Flin","links":[],"coord":{"lat":"48.504976","lon":"6.659203"},"label":"gare de Ménil-Flin (Flin)","administrative_regions":[{"insee":"54199","name":"Flin","level":8,"coord":{"lat":"48.498199","lon":"6.655699"},"label":"Flin (54122)","id":"admin:2959223extern","zip_code":"54122"}],"timezone":"Europe/Paris","id":"stop_area:OCE:SA:87141390"},{"name":"gare de Azerailles","links":[],"coord":{"lat":"48.491249","lon":"6.696128"},"label":"gare de Azerailles (Azerailles)","administrative_regions":[{"insee":"54038","name":"Azerailles","level":8,"coord":{"lat":"48.48867","lon":"6.695268"},"label":"Azerailles (54122)","id":"admin:113012extern","zip_code":"54122"}],"timezone":"Europe/Paris","id":"stop_area:OCE:SA:87141408"},{"name":"gare de Baccarat","links":[],"coord":{"lat":"48.452256","lon":"6.744052"},"label":"gare de Baccarat (Baccarat)","administrative_regions":[{"insee":"54039","name":"Baccarat","level":8,"coord":{"lat":"48.447399","lon":"6.739809"},"label":"Baccarat (54120)","id":"admin:113133extern","zip_code":"54120"}],"timezone":"Europe/Paris","id":"stop_area:OCE:SA:87141416"},{"name":"gare de Bertrichamps","links":[],"coord":{"lat":"48.428385","lon":"6.791057"},"label":"gare de Bertrichamps (Bertrichamps)","administrative_regions":[{"insee":"54065","name":"Bertrichamps","level":8,"coord":{"lat":"48.429913","lon":"6.794948"},"label":"Bertrichamps (54120)","id":"admin:113024extern","zip_code":"54120"}],"timezone":"Europe/Paris","id":"stop_area:OCE:SA:87141424"},{"name":"gare de Thiaville","links":[],"coord":{"lat":"48.413522","lon":"6.810459"},"label":"gare de Thiaville (Thiaville-sur-Meurthe)","administrative_regions":[{"insee":"54519","name":"Thiaville-sur-Meurthe","level":8,"coord":{"lat":"48.4132","lon":"6.809299"},"label":"Thiaville-sur-Meurthe (54120)","id":"admin:113039extern","zip_code":"54120"}],"timezone":"Europe/Paris","id":"stop_area:OCE:SA:87141432"},{"name":"gare de Houdemont","links":[],"coord":{"lat":"48.645531","lon":"6.179671"},"label":"gare de Houdemont (Houdemont)","administrative_regions":[{"insee":"54265","name":"Houdemont","level":8,"coord":{"lat":"48.646999","lon":"6.176116"},"label":"Houdemont (54180)","id":"admin:52394extern","zip_code":"54180"}],"timezone":"Europe/Paris","id":"stop_area:OCE:SA:87141473"},{"name":"gare de Ludres","links":[],"coord":{"lat":"48.621976","lon":"6.170887"},"label":"gare de Ludres (Ludres)","administrative_regions":[{"insee":"54328","name":"Ludres","level":8,"coord":{"lat":"48.622398","lon":"6.16175"},"label":"Ludres (54710)","id":"admin:52393extern","zip_code":"54710"}],"timezone":"Europe/Paris","id":"stop_area:OCE:SA:87141481"},{"name":"gare de Messein","links":[],"coord":{"lat":"48.612801","lon":"6.138059"},"label":"gare de Messein (Messein)","administrative_regions":[{"insee":"54366","name":"Messein","level":8,"coord":{"lat":"48.611401","lon":"6.141559"},"label":"Messein (54850)","id":"admin:113047extern","zip_code":"54850"}],"timezone":"Europe/Paris","id":"stop_area:OCE:SA:87141499"},{"name":"gare de Neuves-Maisons","links":[],"coord":{"lat":"48.614777","lon":"6.107788"},"label":"gare de Neuves-Maisons (Neuves-Maisons)","administrative_regions":[{"insee":"54397","name":"Neuves-Maisons","level":8,"coord":{"lat":"48.61607","lon":"6.103563"},"label":"Neuves-Maisons (54230)","id":"admin:113090extern","zip_code":"54230"}],"timezone":"Europe/Paris","id":"stop_area:OCE:SA:87141507"},{"name":"gare de Pont-St-Vincent","links":[],"coord":{"lat":"48.6021","lon":"6.103437"},"label":"gare de Pont-St-Vincent (Pont-Saint-Vincent)","administrative_regions":[{"insee":"54432","name":"Pont-Saint-Vincent","level":8,"coord":{"lat":"48.605804","lon":"6.09759"},"label":"Pont-Saint-Vincent (54550)","id":"admin:113135extern","zip_code":"54550"}],"timezone":"Europe/Paris","id":"stop_area:OCE:SA:87141523"},{"name":"gare de Bainville","links":[],"coord":{"lat":"48.586526","lon":"6.099354"},"label":"gare de Bainville (Bainville-sur-Madon)","administrative_regions":[{"insee":"54043","name":"Bainville-sur-Madon","level":8,"coord":{"lat":"48.587704","lon":"6.095154"},"label":"Bainville-sur-Madon (54550)","id":"admin:113114extern","zip_code":"54550"}],"timezone":"Europe/Paris","id":"stop_area:OCE:SA:87141531"},{"name":"gare de Xeuilley","links":[],"coord":{"lat":"48.569686","lon":"6.101963"},"label":"gare de Xeuilley (Xeuilley)","administrative_regions":[{"insee":"54596","name":"Xeuilley","level":8,"coord":{"lat":"48.566109","lon":"6.100025"},"label":"Xeuilley (54990)","id":"admin:113020extern","zip_code":"54990"}],"timezone":"Europe/Paris","id":"stop_area:OCE:SA:87141549"},{"name":"gare de Pierreville","links":[],"coord":{"lat":"48.548444","lon":"6.1243"},"label":"gare de Pierreville (Pierreville)","administrative_regions":[{"insee":"54429","name":"Pierreville","level":8,"coord":{"lat":"48.549599","lon":"6.122599"},"label":"Pierreville (54160)","id":"admin:2959739extern","zip_code":"54160"}],"timezone":"Europe/Paris","id":"stop_area:OCE:SA:87141556"},{"name":"gare de Pulligny-Autrey","links":[],"coord":{"lat":"48.535676","lon":"6.13767"},"label":"gare de Pulligny-Autrey (Autrey)","administrative_regions":[{"insee":"54032","name":"Autrey","level":8,"coord":{"lat":"48.532551","lon":"6.130963"},"label":"Autrey (54160)","id":"admin:2959349extern","zip_code":"54160"}],"timezone":"Europe/Paris","id":"stop_area:OCE:SA:87141564"},{"name":"gare de Ceintrey","links":[],"coord":{"lat":"48.52388","lon":"6.157419"},"label":"gare de Ceintrey (Ceintrey)","administrative_regions":[{"insee":"54109","name":"Ceintrey","level":8,"coord":{"lat":"48.524567","lon":"6.164636"},"label":"Ceintrey (54134)","id":"admin:2959278extern","zip_code":"54134"}],"timezone":"Europe/Paris","id":"stop_area:OCE:SA:87141572"},{"name":"gare de Tantonville","links":[],"coord":{"lat":"48.483909","lon":"6.129204"},"label":"gare de Tantonville (Tantonville)","administrative_regions":[{"insee":"54513","name":"Tantonville","level":8,"coord":{"lat":"48.469826","lon":"6.140108"},"label":"Tantonville (54116)","id":"admin:2961445extern","zip_code":"54116"}],"timezone":"Europe/Paris","id":"stop_area:OCE:SA:87141598"},{"name":"gare de Vézelise","links":[],"coord":{"lat":"48.480651","lon":"6.100769"},"label":"gare de Vézelise (Vézelise)","administrative_regions":[{"insee":"54563","name":"Vézelise","level":8,"coord":{"lat":"48.48605","lon":"6.088993"},"label":"Vézelise (54330)","id":"admin:2920919extern","zip_code":"54330"}],"timezone":"Europe/Paris","id":"stop_area:OCE:SA:87141606"},{"name":"gare de Praye-sous-Vaudémont","links":[],"coord":{"lat":"48.432548","lon":"6.10093"},"label":"gare de Praye-sous-Vaudémont (Praye)","administrative_regions":[{"insee":"54434","name":"Praye","level":8,"coord":{"lat":"48.435024","lon":"6.106985"},"label":"Praye (54116)","id":"admin:2960910extern","zip_code":"54116"}],"timezone":"Europe/Paris","id":"stop_area:OCE:SA:87141622"},{"name":"gare de Diarville","links":[],"coord":{"lat":"48.397376","lon":"6.126431"},"label":"gare de Diarville (Diarville)","administrative_regions":[{"insee":"54156","name":"Diarville","level":8,"coord":{"lat":"48.394493","lon":"6.132848"},"label":"Diarville (54930)","id":"admin:113068extern","zip_code":"54930"}],"timezone":"Europe/Paris","id":"stop_area:OCE:SA:87141648"},{"name":"gare de Pompey","links":[],"coord":{"lat":"48.773376","lon":"6.13141"},"label":"gare de Pompey (Pompey)","administrative_regions":[{"insee":"54430","name":"Pompey","level":8,"coord":{"lat":"48.768406","lon":"6.124728"},"label":"Pompey (54340)","id":"admin:75303extern","zip_code":"54340"}],"timezone":"Europe/Paris","id":"stop_area:OCE:SA:87141788"},{"name":"gare de Marbache","links":[],"coord":{"lat":"48.801183","lon":"6.109307"},"label":"gare de Marbache (Marbache)","administrative_regions":[{"insee":"54351","name":"Marbache","level":8,"coord":{"lat":"48.798","lon":"6.103299"},"label":"Marbache (54820)","id":"admin:113091extern","zip_code":"54820"}],"timezone":"Europe/Paris","id":"stop_area:OCE:SA:87141796"},{"name":"gare de Belleville","links":[],"coord":{"lat":"48.819436","lon":"6.101751"},"label":"gare de Belleville (Belleville)","administrative_regions":[{"insee":"54060","name":"Belleville","level":8,"coord":{"lat":"48.81601","lon":"6.099267"},"label":"Belleville (54940)","id":"admin:1140180extern","zip_code":"54940"}],"timezone":"Europe/Paris","id":"stop_area:OCE:SA:87141804"},{"name":"gare de Dieulouard","links":[],"coord":{"lat":"48.84368","lon":"6.071668"},"label":"gare de Dieulouard (Dieulouard)","administrative_regions":[{"insee":"54157","name":"Dieulouard","level":8,"coord":{"lat":"48.838425","lon":"6.066872"},"label":"Dieulouard (54380)","id":"admin:1815235extern","zip_code":"54380"}],"timezone":"Europe/Paris","id":"stop_area:OCE:SA:87141812"},{"name":"gare de Pont-à-Mousson","links":[],"coord":{"lat":"48.900773","lon":"6.049925"},"label":"gare de Pont-à-Mousson (Pont-à-Mousson)","administrative_regions":[{"insee":"54431","name":"Pont-à-Mousson","level":8,"coord":{"lat":"48.903294","lon":"6.054677"},"label":"Pont-à-Mousson (54700)","id":"admin:113038extern","zip_code":"54700"}],"timezone":"Europe/Paris","id":"stop_area:OCE:SA:87141820"},{"name":"gare de Chaumont","links":[],"coord":{"lat":"48.109437","lon":"5.13445"},"label":"gare de Chaumont (Chaumont)","administrative_regions":[{"insee":"52121","name":"Chaumont","level":8,"coord":{"lat":"48.111881","lon":"5.13945"},"label":"Chaumont (52000)","id":"admin:904595extern","zip_code":"52000"}],"timezone":"Europe/Paris","id":"stop_area:OCE:SA:87142000"},{"name":"gare de Langres","links":[],"coord":{"lat":"47.877239","lon":"5.344682"},"label":"gare de Langres (Langres)","administrative_regions":[{"insee":"52269","name":"Langres","level":8,"coord":{"lat":"47.865562","lon":"5.331416"},"label":"Langres (52200)","id":"admin:904542extern","zip_code":"52200"}],"timezone":"Europe/Paris","id":"stop_area:OCE:SA:87142091"},{"name":"gare de Lorraine-TGV","links":[],"coord":{"lat":"48.944021","lon":"6.167379"},"label":"gare de Lorraine-TGV (Louvigny)","administrative_regions":[{"insee":"57422","name":"Louvigny","level":8,"coord":{"lat":"48.962299","lon":"6.1849"},"label":"Louvigny (57420)","id":"admin:1286357extern","zip_code":"57420"}],"timezone":"Europe/Paris","id":"stop_area:OCE:SA:87142109"},{"name":"gare de Culmont-Chalindrey","links":[],"coord":{"lat":"47.810217","lon":"5.443217"},"label":"gare de Culmont-Chalindrey (Culmont)","administrative_regions":[{"insee":"52155","name":"Culmont","level":8,"coord":{"lat":"47.820599","lon":"5.439705"},"label":"Culmont (52600)","id":"admin:3070822extern","zip_code":"52600"}],"timezone":"Europe/Paris","id":"stop_area:OCE:SA:87142125"},{"name":"gare de Bologne","links":[],"coord":{"lat":"48.198581","lon":"5.134246"},"label":"gare de Bologne (Bologne)","administrative_regions":[{"insee":"52058","name":"Bologne","level":8,"coord":{"lat":"48.200001","lon":"5.142599"},"label":"Bologne (52310)","id":"admin:3197391extern","zip_code":"52310"}],"timezone":"Europe/Paris","id":"stop_area:OCE:SA:87142224"},{"name":"gare de Vignory","links":[],"coord":{"lat":"48.27049","lon":"5.124227"},"label":"gare de Vignory (Vignory)","administrative_regions":[{"insee":"52524","name":"Vignory","level":8,"coord":{"lat":"48.278107","lon":"5.103217"},"label":"Vignory (52320)","id":"admin:3200418extern","zip_code":"52320"}],"timezone":"Europe/Paris","id":"stop_area:OCE:SA:87142232"},{"name":"gare de Froncles","links":[],"coord":{"lat":"48.296636","lon":"5.141595"},"label":"gare de Froncles (Froncles)","administrative_regions":[{"insee":"52211","name":"Froncles","level":8,"coord":{"lat":"48.298401","lon":"5.14198"},"label":"Froncles (52320)","id":"admin:3207090extern","zip_code":"52320"}],"timezone":"Europe/Paris","id":"stop_area:OCE:SA:87142240"},{"name":"gare de Gudmont","links":[],"coord":{"lat":"48.337436","lon":"5.140838"},"label":"gare de Gudmont (Gudmont-Villiers)","administrative_regions":[{"insee":"52230","name":"Gudmont-Villiers","level":8,"coord":{"lat":"48.33366","lon":"5.134818"},"label":"Gudmont-Villiers (52320)","id":"admin:3205951extern","zip_code":"52320"}],"timezone":"Europe/Paris","id":"stop_area:OCE:SA:87142265"},{"name":"gare de Donjeux","links":[],"coord":{"lat":"48.365936","lon":"5.148413"},"label":"gare de Donjeux (Donjeux)","administrative_regions":[{"insee":"52175","name":"Donjeux","level":8,"coord":{"lat":"48.364792","lon":"5.155552"},"label":"Donjeux (52300)","id":"admin:3203697extern","zip_code":"52300"}],"timezone":"Europe/Paris","id":"stop_area:OCE:SA:87142273"},{"name":"gare de Merrey (Haute-Marne)","links":[],"coord":{"lat":"48.053932","lon":"5.594751"},"label":"gare de Merrey (Haute-Marne) (Merrey)","administrative_regions":[{"insee":"52320","name":"Merrey","level":8,"coord":{"lat":"48.053761","lon":"5.591731"},"label":"Merrey (52240)","id":"admin:3071244extern","zip_code":"52240"}],"timezone":"Europe/Paris","id":"stop_area:OCE:SA:87142406"},{"name":"gare de Damblain","links":[],"coord":{"lat":"48.093945","lon":"5.657024"},"label":"gare de Damblain (Damblain)","administrative_regions":[{"insee":"88123","name":"Damblain","level":8,"coord":{"lat":"48.096806","lon":"5.654519"},"label":"Damblain (88320)","id":"admin:934992extern","zip_code":"88320"}],"timezone":"Europe/Paris","id":"stop_area:OCE:SA:87142497"},{"name":"gare de Vraincourt-Vieville","links":[],"coord":{"lat":"48.237084","lon":"5.123854"},"label":"gare de Vraincourt-Vieville (Vraincourt)","administrative_regions":[{"insee":"52548","name":"Vraincourt","level":8,"coord":{"lat":"48.240997","lon":"5.125726"},"label":"Vraincourt (52310)","id":"admin:3070025extern","zip_code":"52310"}],"timezone":"Europe/Paris","id":"stop_area:OCE:SA:87143024"},{"name":"gare de Epinal","links":[],"coord":{"lat":"48.178059","lon":"6.441547"},"label":"gare de Epinal (Épinal)","administrative_regions":[{"insee":"88160","name":"Épinal","level":8,"coord":{"lat":"48.174564","lon":"6.450641"},"label":"Épinal (88000)","id":"admin:78828extern","zip_code":"88000"}],"timezone":"Europe/Paris","id":"stop_area:OCE:SA:87144006"},{"name":"gare de St-Dié-des-Vosges","links":[],"coord":{"lat":"48.282217","lon":"6.948041"},"label":"gare de St-Dié-des-Vosges (Saint-Dié-des-Vosges)","administrative_regions":[{"insee":"88413","name":"Saint-Dié-des-Vosges","level":8,"coord":{"lat":"48.284477","lon":"6.951128"},"label":"Saint-Dié-des-Vosges (88100)","id":"admin:86754extern","zip_code":"88100"}],"timezone":"Europe/Paris","id":"stop_area:OCE:SA:87144014"},{"name":"gare de Docelles-Cheniménil","links":[],"coord":{"lat":"48.141452","lon":"6.606969"},"label":"gare de Docelles-Cheniménil (Cheniménil)","administrative_regions":[{"insee":"88101","name":"Cheniménil","level":8,"coord":{"lat":"48.138969","lon":"6.602277"},"label":"Cheniménil (88460)","id":"admin:125590extern","zip_code":"88460"}],"timezone":"Europe/Paris","id":"stop_area:OCE:SA:87144030"},{"name":"gare de Lépanges","links":[],"coord":{"lat":"48.17266","lon":"6.672149"},"label":"gare de Lépanges (Lépanges-sur-Vologne)","administrative_regions":[{"insee":"88266","name":"Lépanges-sur-Vologne","level":8,"coord":{"lat":"48.173035","lon":"6.671907"},"label":"Lépanges-sur-Vologne (88600)","id":"admin:125280extern","zip_code":"88600"}],"timezone":"Europe/Paris","id":"stop_area:OCE:SA:87144048"},{"name":"gare de Charmes (Vosges)","links":[],"coord":{"lat":"48.378637","lon":"6.301297"},"label":"gare de Charmes (Vosges) (Charmes)","administrative_regions":[{"insee":"88090","name":"Charmes","level":8,"coord":{"lat":"48.37254","lon":"6.293385"},"label":"Charmes (88130)","id":"admin:150963extern","zip_code":"88130"}],"timezone":"Europe/Paris","id":"stop_area:OCE:SA:87144055"},{"name":"gare de Vincey (Vosges)","links":[],"coord":{"lat":"48.343661","lon":"6.335474"},"label":"gare de Vincey (Vosges) (Portieux)","administrative_regions":[{"insee":"88355","name":"Portieux","level":8,"coord":{"lat":"48.345303","lon":"6.345868"},"label":"Portieux (88330)","id":"admin:153754extern","zip_code":"88330"}],"timezone":"Europe/Paris","id":"stop_area:OCE:SA:87144063"},{"name":"gare de Châtel-Nomexy","links":[],"coord":{"lat":"48.307097","lon":"6.388039"},"label":"gare de Châtel-Nomexy (Nomexy)","administrative_regions":[{"insee":"88327","name":"Nomexy","level":8,"coord":{"lat":"48.308399","lon":"6.379466"},"label":"Nomexy (88440)","id":"admin:153863extern","zip_code":"88440"}],"timezone":"Europe/Paris","id":"stop_area:OCE:SA:87144071"},{"name":"gare de Igney","links":[],"coord":{"lat":"48.270893","lon":"6.399591"},"label":"gare de Igney (Igney)","administrative_regions":[{"insee":"88247","name":"Igney","level":8,"coord":{"lat":"48.275517","lon":"6.396071"},"label":"Igney (88150)","id":"admin:157427extern","zip_code":"88150"}],"timezone":"Europe/Paris","id":"stop_area:OCE:SA:87144089"},{"name":"gare de Thaon","links":[],"coord":{"lat":"48.244686","lon":"6.415947"},"label":"gare de Thaon (Thaon-les-Vosges)","administrative_regions":[{"insee":"88465","name":"Thaon-les-Vosges","level":8,"coord":{"lat":"48.251335","lon":"6.420852"},"label":"Thaon-les-Vosges (88150)","id":"admin:157432extern","zip_code":"88150"}],"timezone":"Europe/Paris","id":"stop_area:OCE:SA:87144097"},{"name":"gare de Raves-Ban-de-Laveline","links":[],"coord":{"lat":"48.265968","lon":"7.038831"},"label":"gare de Raves-Ban-de-Laveline (Raves)","administrative_regions":[{"insee":"88375","name":"Raves","level":8,"coord":{"lat":"48.263458","lon":"7.050436"},"label":"Raves (88520)","id":"admin:87186extern","zip_code":"88520"}],"timezone":"Europe/Paris","id":"stop_area:OCE:SA:87144105"},{"name":"gare de Xertigny","links":[],"coord":{"lat":"48.052982","lon":"6.376746"},"label":"gare de Xertigny (Xertigny)","administrative_regions":[{"insee":"88530","name":"Xertigny","level":8,"coord":{"lat":"48.04533","lon":"6.40088"},"label":"Xertigny (88220)","id":"admin:941016extern","zip_code":"88220"}],"timezone":"Europe/Paris","id":"stop_area:OCE:SA:87144121"},{"name":"gare de Bains-les-Bains","links":[],"coord":{"lat":"47.981197","lon":"6.295177"},"label":"gare de Bains-les-Bains (Le Clerjus)","administrative_regions":[{"insee":"88108","name":"Le Clerjus","level":8,"coord":{"lat":"47.960098","lon":"6.3221"},"label":"Le Clerjus (88240)","id":"admin:934927extern","zip_code":"88240"}],"timezone":"Europe/Paris","id":"stop_area:OCE:SA:87144147"},{"name":"gare de Bruyères (Vosges)","links":[],"coord":{"lat":"48.204729","lon":"6.7192"},"label":"gare de Bruyères (Vosges) (Bruyères)","administrative_regions":[{"insee":"88078","name":"Bruyères","level":8,"coord":{"lat":"48.208248","lon":"6.720063"},"label":"Bruyères (88600)","id":"admin:125211extern","zip_code":"88600"}],"timezone":"Europe/Paris","id":"stop_area:OCE:SA:87144154"},{"name":"gare de Laveline-devant-Bruyère","links":[],"coord":{"lat":"48.185503","lon":"6.751627"},"label":"gare de Laveline-devant-Bruyère (Laveline-devant-Bruyères)","administrative_regions":[{"insee":"88262","name":"Laveline-devant-Bruyères","level":8,"coord":{"lat":"48.184746","lon":"6.760221"},"label":"Laveline-devant-Bruyères (88600)","id":"admin:124576extern","zip_code":"88600"}],"timezone":"Europe/Paris","id":"stop_area:OCE:SA:87144162"},{"name":"gare de Biffontaine","links":[],"coord":{"lat":"48.205852","lon":"6.806987"},"label":"gare de Biffontaine (Biffontaine)","administrative_regions":[{"insee":"88059","name":"Biffontaine","level":8,"coord":{"lat":"48.211933","lon":"6.805505"},"label":"Biffontaine (88430)","id":"admin:117751extern","zip_code":"88430"}],"timezone":"Europe/Paris","id":"stop_area:OCE:SA:87144188"},{"name":"gare de Corcieux-Vanémont","links":[],"coord":{"lat":"48.198324","lon":"6.877151"},"label":"gare de Corcieux-Vanémont (La Houssière)","administrative_regions":[{"insee":"88244","name":"La Houssière","level":8,"coord":{"lat":"48.196053","lon":"6.854143"},"label":"La Houssière (88430)","id":"admin:117650extern","zip_code":"88430"}],"timezone":"Europe/Paris","id":"stop_area:OCE:SA:87144196"},{"name":"gare de Mirecourt","links":[],"coord":{"lat":"48.299205","lon":"6.129342"},"label":"gare de Mirecourt (Mirecourt)","administrative_regions":[{"insee":"88304","name":"Mirecourt","level":8,"coord":{"lat":"48.300529","lon":"6.131297"},"label":"Mirecourt (88500)","id":"admin:269925extern","zip_code":"88500"}],"timezone":"Europe/Paris","id":"stop_area:OCE:SA:87144212"},{"name":"gare de Hymont-Mattaincourt","links":[],"coord":{"lat":"48.270714","lon":"6.140536"},"label":"gare de Hymont-Mattaincourt (Hymont)","administrative_regions":[{"insee":"88246","name":"Hymont","level":8,"coord":{"lat":"48.265896","lon":"6.142523"},"label":"Hymont (88500)","id":"admin:269978extern","zip_code":"88500"}],"timezone":"Europe/Paris","id":"stop_area:OCE:SA:87144220"},{"name":"gare de Vittel","links":[],"coord":{"lat":"48.202586","lon":"5.941874"},"label":"gare de Vittel (Vittel)","administrative_regions":[{"insee":"88516","name":"Vittel","level":8,"coord":{"lat":"48.201836","lon":"5.949224"},"label":"Vittel (88800)","id":"admin:939961extern","zip_code":"88800"}],"timezone":"Europe/Paris","id":"stop_area:OCE:SA:87144279"},{"name":"gare de Contrexéville","links":[],"coord":{"lat":"48.17996","lon":"5.890982"},"label":"gare de Contrexéville (Contrexéville)","administrative_regions":[{"insee":"88114","name":"Contrexéville","level":8,"coord":{"lat":"48.187908","lon":"5.894623"},"label":"Contrexéville (88140)","id":"admin:940030extern","zip_code":"88140"}],"timezone":"Europe/Paris","id":"stop_area:OCE:SA:87144287"},{"name":"gare de Martigny-les-Bains","links":[],"coord":{"lat":"48.108675","lon":"5.825821"},"label":"gare de Martigny-les-Bains (Martigny-les-Bains)","administrative_regions":[{"insee":"88289","name":"Martigny-les-Bains","level":8,"coord":{"lat":"48.1063","lon":"5.824"},"label":"Martigny-les-Bains (88320)","id":"admin:940076extern","zip_code":"88320"}],"timezone":"Europe/Paris","id":"stop_area:OCE:SA:87144295"},{"name":"gare de Lamarche (Vosges)","links":[],"coord":{"lat":"48.089959","lon":"5.760269"},"label":"gare de Lamarche (Vosges) (Lamarche)","administrative_regions":[{"insee":"88258","name":"Lamarche","level":8,"coord":{"lat":"48.068798","lon":"5.7822"},"label":"Lamarche (88320)","id":"admin:934971extern","zip_code":"88320"}],"timezone":"Europe/Paris","id":"stop_area:OCE:SA:87144303"},{"name":"gare de Rozières-sur-Mouzon","links":[],"coord":{"lat":"48.120588","lon":"5.705859"},"label":"gare de Rozières-sur-Mouzon (Rozières-sur-Mouzon)","administrative_regions":[{"insee":"88404","name":"Rozières-sur-Mouzon","level":8,"coord":{"lat":"48.120701","lon":"5.7066"},"label":"Rozières-sur-Mouzon (88320)","id":"admin:935094extern","zip_code":"88320"}],"timezone":"Europe/Paris","id":"stop_area:OCE:SA:87144311"},{"name":"gare de Lesseux-Frapelle","links":[],"coord":{"lat":"48.2897","lon":"7.076593"},"label":"gare de Lesseux-Frapelle (Lusse)","administrative_regions":[{"insee":"88276","name":"Lusse","level":8,"coord":{"lat":"48.29287","lon":"7.103708"},"label":"Lusse (88490)","id":"admin:87256extern","zip_code":"88490"}],"timezone":"Europe/Paris","id":"stop_area:OCE:SA:87144329"},{"name":"gare de Provenchères-sur-Fave","links":[],"coord":{"lat":"48.304792","lon":"7.08564"},"label":"gare de Provenchères-sur-Fave (Provenchères-sur-Fave)","administrative_regions":[{"insee":"88361","name":"Provenchères-sur-Fave","level":8,"coord":{"lat":"48.307747","lon":"7.07943"},"label":"Provenchères-sur-Fave (88490)","id":"admin:87578extern","zip_code":"88490"}],"timezone":"Europe/Paris","id":"stop_area:OCE:SA:87144345"},{"name":"gare de Colroy-Lubine","links":[],"coord":{"lat":"48.314636","lon":"7.131245"},"label":"gare de Colroy-Lubine (Colroy-la-Grande)","administrative_regions":[{"insee":"88112","name":"Colroy-la-Grande","level":8,"coord":{"lat":"48.315952","lon":"7.111805"},"label":"Colroy-la-Grande (88490)","id":"admin:87589extern","zip_code":"88490"}],"timezone":"Europe/Paris","id":"stop_area:OCE:SA:87144386"},{"name":"gare de Arches","links":[],"coord":{"lat":"48.119941","lon":"6.528"},"label":"gare de Arches (Arches)","administrative_regions":[{"insee":"88011","name":"Arches","level":8,"coord":{"lat":"48.117344","lon":"6.528926"},"label":"Arches (88380)","id":"admin:941069extern","zip_code":"88380"}],"timezone":"Europe/Paris","id":"stop_area:OCE:SA:87144410"},{"name":"gare de Pouxeux","links":[],"coord":{"lat":"48.103771","lon":"6.581242"},"label":"gare de Pouxeux (Pouxeux)","administrative_regions":[{"insee":"88358","name":"Pouxeux","level":8,"coord":{"lat":"48.106789","lon":"6.568465"},"label":"Pouxeux (88550)","id":"admin:941516extern","zip_code":"88550"}],"timezone":"Europe/Paris","id":"stop_area:OCE:SA:87144428"},{"name":"gare de Eloyes","links":[],"coord":{"lat":"48.087131","lon":"6.600061"},"label":"gare de Eloyes (Éloyes)","administrative_regions":[{"insee":"88158","name":"Éloyes","level":8,"coord":{"lat":"48.096687","lon":"6.610229"},"label":"Éloyes (88510)","id":"admin:941515extern","zip_code":"88510"}],"timezone":"Europe/Paris","id":"stop_area:OCE:SA:87144436"},{"name":"gare de Remiremont","links":[],"coord":{"lat":"48.016349","lon":"6.599031"},"label":"gare de Remiremont (Remiremont)","administrative_regions":[{"insee":"88383","name":"Remiremont","level":8,"coord":{"lat":"48.015896","lon":"6.591261"},"label":"Remiremont (88200)","id":"admin:941536extern","zip_code":"88200"}],"timezone":"Europe/Paris","id":"stop_area:OCE:SA:87144451"},{"name":"gare de St-Léonard (Vosges)","links":[],"coord":{"lat":"48.217507","lon":"6.941761"},"label":"gare de St-Léonard (Vosges) (Saint-Léonard)","administrative_regions":[{"insee":"88423","name":"Saint-Léonard","level":8,"coord":{"lat":"48.217163","lon":"6.944435"},"label":"Saint-Léonard (88650)","id":"admin:86714extern","zip_code":"88650"}],"timezone":"Europe/Paris","id":"stop_area:OCE:SA:87144477"},{"name":"gare de Raon-l'Etape","links":[],"coord":{"lat":"48.40372","lon":"6.836871"},"label":"gare de Raon-l'Etape (Raon-l'Étape)","administrative_regions":[{"insee":"88372","name":"Raon-l'Étape","level":8,"coord":{"lat":"48.406673","lon":"6.841952"},"label":"Raon-l'Étape (88110)","id":"admin:88202extern","zip_code":"88110"}],"timezone":"Europe/Paris","id":"stop_area:OCE:SA:87144626"},{"name":"gare de Etival-Clairefontaine","links":[],"coord":{"lat":"48.366645","lon":"6.877011"},"label":"gare de Etival-Clairefontaine (Étival-Clairefontaine)","administrative_regions":[{"insee":"88165","name":"Étival-Clairefontaine","level":8,"coord":{"lat":"48.364674","lon":"6.858771"},"label":"Étival-Clairefontaine (88480)","id":"admin:146820extern","zip_code":"88480"}],"timezone":"Europe/Paris","id":"stop_area:OCE:SA:87144642"},{"name":"gare de St-Michel-sur-Meurthe","links":[],"coord":{"lat":"48.327438","lon":"6.887873"},"label":"gare de St-Michel-sur-Meurthe (Saint-Michel-sur-Meurthe)","administrative_regions":[{"insee":"88428","name":"Saint-Michel-sur-Meurthe","level":8,"coord":{"lat":"48.31926","lon":"6.886195"},"label":"Saint-Michel-sur-Meurthe (88470)","id":"admin:145235extern","zip_code":"88470"}],"timezone":"Europe/Paris","id":"stop_area:OCE:SA:87144683"},{"name":"gare de St-Nabord","links":[],"coord":{"lat":"48.046161","lon":"6.58185"},"label":"gare de St-Nabord (Saint-Nabord)","administrative_regions":[{"insee":"88429","name":"Saint-Nabord","level":8,"coord":{"lat":"48.051605","lon":"6.582322"},"label":"Saint-Nabord (88200)","id":"admin:941538extern","zip_code":"88200"}],"timezone":"Europe/Paris","id":"stop_area:OCE:SA:87146217"},{"name":"gare de Meuse-TGV","links":[],"coord":{"lat":"48.978467","lon":"5.271064"},"label":"gare de Meuse-TGV (Les Trois-Domaines)","administrative_regions":[{"insee":"55254","name":"Les Trois-Domaines","level":8,"coord":{"lat":"48.966919","lon":"5.286242"},"label":"Les Trois-Domaines (55220)","id":"admin:929389extern","zip_code":"55220"}],"timezone":"Europe/Paris","id":"stop_area:OCE:SA:87147322"},{"name":"gare de Ker Lann","links":[],"coord":{"lat":"48.043834","lon":"-1.738944"},"label":"gare de Ker Lann (Bruz)","administrative_regions":[{"insee":"35047","name":"Bruz","level":8,"coord":{"lat":"48.023762","lon":"-1.748887"},"label":"Bruz (35170)","id":"admin:107906extern","zip_code":"35170"}],"timezone":"Europe/Paris","id":"stop_area:OCE:SA:87159947"},{"name":"gare de Stade-France-St-Denis","links":[],"coord":{"lat":"48.917546","lon":"2.350978"},"label":"gare de Stade-France-St-Denis (Saint-Denis)","administrative_regions":[{"insee":"93066","name":"Saint-Denis","level":8,"coord":{"lat":"48.935772","lon":"2.358023"},"label":"Saint-Denis (93200-93210)","id":"admin:87922extern","zip_code":"93200;93210"}],"timezone":"Europe/Paris","id":"stop_area:OCE:SA:87164780"},{"name":"gare de La Plaine-Stade-France","links":[],"coord":{"lat":"48.918263","lon":"2.362664"},"label":"gare de La Plaine-Stade-France (Saint-Denis)","administrative_regions":[{"insee":"93066","name":"Saint-Denis","level":8,"coord":{"lat":"48.935772","lon":"2.358023"},"label":"Saint-Denis (93200-93210)","id":"admin:87922extern","zip_code":"93200;93210"}],"timezone":"Europe/Paris","id":"stop_area:OCE:SA:87164798"},{"name":"gare de Reims","links":[],"coord":{"lat":"49.259056","lon":"4.024037"},"label":"gare de Reims (Reims)","administrative_regions":[{"insee":"51454","name":"Reims","level":8,"coord":{"lat":"49.25779","lon":"4.031925"},"label":"Reims (51100)","id":"admin:36458extern","zip_code":"51100"}],"timezone":"Europe/Paris","id":"stop_area:OCE:SA:87171009"},{"name":"gare de Montbré","links":[],"coord":{"lat":"49.193794","lon":"4.038682"},"label":"gare de Montbré (Montbré)","administrative_regions":[{"insee":"51375","name":"Montbré","level":8,"coord":{"lat":"49.193527","lon":"4.039811"},"label":"Montbré (51500)","id":"admin:418185extern","zip_code":"51500"}],"timezone":"Europe/Paris","id":"stop_area:OCE:SA:87171256"},{"name":"gare de Trois-Puits","links":[],"coord":{"lat":"49.206767","lon":"4.038398"},"label":"gare de Trois-Puits (Trois-Puits)","administrative_regions":[{"insee":"51584","name":"Trois-Puits","level":8,"coord":{"lat":"49.20562","lon":"4.040759"},"label":"Trois-Puits (51500)","id":"admin:36468extern","zip_code":"51500"}],"timezone":"Europe/Paris","id":"stop_area:OCE:SA:87171264"},{"name":"gare de Reims-Maison-Blanche","links":[],"coord":{"lat":"49.233382","lon":"4.022728"},"label":"gare de Reims-Maison-Blanche (Reims)","administrative_regions":[{"insee":"51454","name":"Reims","level":8,"coord":{"lat":"49.25779","lon":"4.031925"},"label":"Reims (51100)","id":"admin:36458extern","zip_code":"51100"}],"timezone":"Europe/Paris","id":"stop_area:OCE:SA:87171272"},{"name":"gare de Muizon (PN32)","links":[],"coord":{"lat":"49.278249","lon":"3.891044"},"label":"gare de Muizon (PN32) (Muizon)","administrative_regions":[{"insee":"51391","name":"Muizon","level":8,"coord":{"lat":"49.275146","lon":"3.894293"},"label":"Muizon (51140)","id":"admin:2612152extern","zip_code":"51140"}],"timezone":"Europe/Paris","id":"stop_area:OCE:SA:87171298"},{"name":"gare de Jonchery-sur-Vesle","links":[],"coord":{"lat":"49.289716","lon":"3.819861"},"label":"gare de Jonchery-sur-Vesle (Jonchery-sur-Vesle)","administrative_regions":[{"insee":"51308","name":"Jonchery-sur-Vesle","level":8,"coord":{"lat":"49.285496","lon":"3.816596"},"label":"Jonchery-sur-Vesle (51140)","id":"admin:2618589extern","zip_code":"51140"}],"timezone":"Europe/Paris","id":"stop_area:OCE:SA:87171314"},{"name":"gare de Breuil-Romain","links":[],"coord":{"lat":"49.30852","lon":"3.76604"},"label":"gare de Breuil-Romain (Breuil)","administrative_regions":[{"insee":"51086","name":"Breuil","level":8,"coord":{"lat":"49.309772","lon":"3.766977"},"label":"Breuil (51140)","id":"admin:2621430extern","zip_code":"51140"}],"timezone":"Europe/Paris","id":"stop_area:OCE:SA:87171322"},{"name":"gare de Fismes","links":[],"coord":{"lat":"49.310844","lon":"3.682317"},"label":"gare de Fismes (Fismes)","administrative_regions":[{"insee":"51250","name":"Fismes","level":8,"coord":{"lat":"49.307243","lon":"3.680277"},"label":"Fismes (51170)","id":"admin:1973598extern","zip_code":"51170"}],"timezone":"Europe/Paris","id":"stop_area:OCE:SA:87171330"},{"name":"gare de Bazoches","links":[],"coord":{"lat":"49.305272","lon":"3.613274"},"label":"gare de Bazoches (Bazoches-sur-Vesles)","administrative_regions":[{"insee":"02054","name":"Bazoches-sur-Vesles","level":8,"coord":{"lat":"49.306816","lon":"3.619357"},"label":"Bazoches-sur-Vesles (2220)","id":"admin:74152extern","zip_code":"02220"}],"timezone":"Europe/Paris","id":"stop_area:OCE:SA:87171348"},{"name":"gare de Haguenau","links":[],"coord":{"lat":"48.813411","lon":"7.782347"},"label":"gare de Haguenau (Haguenau)","administrative_regions":[{"insee":"67180","name":"Haguenau","level":8,"coord":{"lat":"48.817223","lon":"7.788597"},"label":"Haguenau (67500)","id":"admin:89859extern","zip_code":"67500"}],"timezone":"Europe/Paris","id":"stop_area:OCE:SA:87213058"},{"name":"gare de Schweighouse (Bas-Rhin)","links":[],"coord":{"lat":"48.828535","lon":"7.742319"},"label":"gare de Schweighouse (Bas-Rhin) (Schweighouse-sur-Moder)","administrative_regions":[{"insee":"67458","name":"Schweighouse-sur-Moder","level":8,"coord":{"lat":"48.821213","lon":"7.735816"},"label":"Schweighouse-sur-Moder (67590)","id":"admin:89688extern","zip_code":"67590"}],"timezone":"Europe/Paris","id":"stop_area:OCE:SA:87213108"},{"name":"gare de Obermodern","links":[],"coord":{"lat":"48.842157","lon":"7.53996"},"label":"gare de Obermodern (Obermodern-Zutzendorf)","administrative_regions":[{"insee":"67347","name":"Obermodern-Zutzendorf","level":8,"coord":{"lat":"48.84441","lon":"7.536743"},"label":"Obermodern-Zutzendorf (67330)","id":"admin:1165170extern","zip_code":"67330"}],"timezone":"Europe/Paris","id":"stop_area:OCE:SA:87213165"},{"name":"gare de Mertzwiller","links":[],"coord":{"lat":"48.871974","lon":"7.678329"},"label":"gare de Mertzwiller (Mertzwiller)","administrative_regions":[{"insee":"67291","name":"Mertzwiller","level":8,"coord":{"lat":"48.865993","lon":"7.682303"},"label":"Mertzwiller (67580)","id":"admin:1129045extern","zip_code":"67580"}],"timezone":"Europe/Paris","id":"stop_area:OCE:SA:87213207"},{"name":"gare de Gundershoffen","links":[],"coord":{"lat":"48.905352","lon":"7.65308"},"label":"gare de Gundershoffen (Gundershoffen)","administrative_regions":[{"insee":"67176","name":"Gundershoffen","level":8,"coord":{"lat":"48.907696","lon":"7.660572"},"label":"Gundershoffen (67110)","id":"admin:91334extern","zip_code":"67110"}],"timezone":"Europe/Paris","id":"stop_area:OCE:SA:87213223"},{"name":"gare de Reichshoffen-Ville","links":[],"coord":{"lat":"48.930689","lon":"7.657954"},"label":"gare de Reichshoffen-Ville (Reichshoffen)","administrative_regions":[{"insee":"67388","name":"Reichshoffen","level":8,"coord":{"lat":"48.934814","lon":"7.663679"},"label":"Reichshoffen (67110)","id":"admin:91326extern","zip_code":"67110"}],"timezone":"Europe/Paris","id":"stop_area:OCE:SA:87213249"},{"name":"gare de Niederbronn","links":[],"coord":{"lat":"48.95233","lon":"7.633773"},"label":"gare de Niederbronn (Niederbronn-les-Bains)","administrative_regions":[{"insee":"67324","name":"Niederbronn-les-Bains","level":8,"coord":{"lat":"48.950523","lon":"7.644773"},"label":"Niederbronn-les-Bains (67110)","id":"admin:91290extern","zip_code":"67110"}],"timezone":"Europe/Paris","id":"stop_area:OCE:SA:87213256"},{"name":"gare de Walbourg","links":[],"coord":{"lat":"48.886216","lon":"7.809187"},"label":"gare de Walbourg (Walbourg)","administrative_regions":[{"insee":"67511","name":"Walbourg","level":8,"coord":{"lat":"48.886898","lon":"7.789664"},"label":"Walbourg (67360)","id":"admin:91927extern","zip_code":"67360"}],"timezone":"Europe/Paris","id":"stop_area:OCE:SA:87213405"},{"name":"gare de Hoelschloch-Surbourg","links":[],"coord":{"lat":"48.916318","lon":"7.831399"},"label":"gare de Hoelschloch-Surbourg (Surbourg)","administrative_regions":[{"insee":"67487","name":"Surbourg","level":8,"coord":{"lat":"48.909664","lon":"7.848422"},"label":"Surbourg (67250)","id":"admin:1130811extern","zip_code":"67250"}],"timezone":"Europe/Paris","id":"stop_area:OCE:SA:87213413"},{"name":"gare de Soultz-sous-Forêts","links":[],"coord":{"lat":"48.93449","lon":"7.882119"},"label":"gare de Soultz-sous-Forêts (Soultz-sous-Forêts)","administrative_regions":[{"insee":"67474","name":"Soultz-sous-Forêts","level":8,"coord":{"lat":"48.937244","lon":"7.88346"},"label":"Soultz-sous-Forêts (67250)","id":"admin:1136133extern","zip_code":"67250"}],"timezone":"Europe/Paris","id":"stop_area:OCE:SA:87213421"},{"name":"gare de Ay","links":[],"coord":{"lat":"49.048782","lon":"4.001661"},"label":"gare de Ay (Ay)","administrative_regions":[{"insee":"51030","name":"Ay","level":8,"coord":{"lat":"49.054871","lon":"4.002504"},"label":"Ay (51160)","id":"admin:417494extern","zip_code":"51160"}],"timezone":"Europe/Paris","id":"stop_area:OCE:SA:87171561"},{"name":"gare de Avenay","links":[],"coord":{"lat":"49.064526","lon":"4.043299"},"label":"gare de Avenay (Avenay-Val-d'Or)","administrative_regions":[{"insee":"51028","name":"Avenay-Val-d'Or","level":8,"coord":{"lat":"49.07056","lon":"4.047057"},"label":"Avenay-Val-d'Or (51160)","id":"admin:2651291extern","zip_code":"51160"}],"timezone":"Europe/Paris","id":"stop_area:OCE:SA:87171579"},{"name":"gare de Germaine","links":[],"coord":{"lat":"49.127932","lon":"4.022512"},"label":"gare de Germaine (Germaine)","administrative_regions":[{"insee":"51266","name":"Germaine","level":8,"coord":{"lat":"49.114399","lon":"4.030019"},"label":"Germaine (51160)","id":"admin:2660239extern","zip_code":"51160"}],"timezone":"Europe/Paris","id":"stop_area:OCE:SA:87171587"},{"name":"gare de Rilly-la-Montagne","links":[],"coord":{"lat":"49.167193","lon":"4.041189"},"label":"gare de Rilly-la-Montagne (Rilly-la-Montagne)","administrative_regions":[{"insee":"51461","name":"Rilly-la-Montagne","level":8,"coord":{"lat":"49.163204","lon":"4.045714"},"label":"Rilly-la-Montagne (51500)","id":"admin:2658932extern","zip_code":"51500"}],"timezone":"Europe/Paris","id":"stop_area:OCE:SA:87171595"},{"name":"gare de Val-de-Vesle (Marne)","links":[],"coord":{"lat":"49.178393","lon":"4.221692"},"label":"gare de Val-de-Vesle (Marne) (Val-de-Vesle)","administrative_regions":[{"insee":"51571","name":"Val-de-Vesle","level":8,"coord":{"lat":"49.178326","lon":"4.216651"},"label":"Val-de-Vesle (51360)","id":"admin:2607794extern","zip_code":"51360"}],"timezone":"Europe/Paris","id":"stop_area:OCE:SA:87171611"},{"name":"gare de Prunay","links":[],"coord":{"lat":"49.198813","lon":"4.183573"},"label":"gare de Prunay (Prunay)","administrative_regions":[{"insee":"51449","name":"Prunay","level":8,"coord":{"lat":"49.19643","lon":"4.182955"},"label":"Prunay (51360)","id":"admin:2604468extern","zip_code":"51360"}],"timezone":"Europe/Paris","id":"stop_area:OCE:SA:87171629"},{"name":"gare de Sillery","links":[],"coord":{"lat":"49.203351","lon":"4.144084"},"label":"gare de Sillery (Sillery)","administrative_regions":[{"insee":"51536","name":"Sillery","level":8,"coord":{"lat":"49.197105","lon":"4.130593"},"label":"Sillery (51500)","id":"admin:2604626extern","zip_code":"51500"}],"timezone":"Europe/Paris","id":"stop_area:OCE:SA:87171637"},{"name":"gare de Sept-Saulx","links":[],"coord":{"lat":"49.151471","lon":"4.256497"},"label":"gare de Sept-Saulx (Sept-Saulx)","administrative_regions":[{"insee":"51530","name":"Sept-Saulx","level":8,"coord":{"lat":"49.151432","lon":"4.251419"},"label":"Sept-Saulx (51400)","id":"admin:2611681extern","zip_code":"51400"}],"timezone":"Europe/Paris","id":"stop_area:OCE:SA:87171645"},{"name":"gare de Aguilcourt-Variscourt","links":[],"coord":{"lat":"49.407999","lon":"3.973008"},"label":"gare de Aguilcourt-Variscourt (Variscourt)","administrative_regions":[{"insee":"02761","name":"Variscourt","level":8,"coord":{"lat":"49.417042","lon":"3.985784"},"label":"Variscourt (2190)","id":"admin:420676extern","zip_code":"02190"}],"timezone":"Europe/Paris","id":"stop_area:OCE:SA:87171702"},{"name":"gare de Courcy-Brimont","links":[],"coord":{"lat":"49.329149","lon":"4.014971"},"label":"gare de Courcy-Brimont (Courcy)","administrative_regions":[{"insee":"51183","name":"Courcy","level":8,"coord":{"lat":"49.323086","lon":"4.001426"},"label":"Courcy (51220)","id":"admin:2033689extern","zip_code":"51220"}],"timezone":"Europe/Paris","id":"stop_area:OCE:SA:87171710"},{"name":"gare de Loivre","links":[],"coord":{"lat":"49.346741","lon":"3.990433"},"label":"gare de Loivre (Loivre)","administrative_regions":[{"insee":"51329","name":"Loivre","level":8,"coord":{"lat":"49.346264","lon":"3.980159"},"label":"Loivre (51220)","id":"admin:418041extern","zip_code":"51220"}],"timezone":"Europe/Paris","id":"stop_area:OCE:SA:87171728"},{"name":"gare de Guignicourt (Aisne)","links":[],"coord":{"lat":"49.435097","lon":"3.961103"},"label":"gare de Guignicourt (Aisne) (Guignicourt)","administrative_regions":[{"insee":"02360","name":"Guignicourt","level":8,"coord":{"lat":"49.434357","lon":"3.965736"},"label":"Guignicourt (2190)","id":"admin:416937extern","zip_code":"02190"}],"timezone":"Europe/Paris","id":"stop_area:OCE:SA:87171736"},{"name":"gare de Amifontaine","links":[],"coord":{"lat":"49.484641","lon":"3.910701"},"label":"gare de Amifontaine (Amifontaine)","administrative_regions":[{"insee":"02013","name":"Amifontaine","level":8,"coord":{"lat":"49.483608","lon":"3.918032"},"label":"Amifontaine (2190)","id":"admin:2952094extern","zip_code":"02190"}],"timezone":"Europe/Paris","id":"stop_area:OCE:SA:87171744"},{"name":"gare de St-Erme","links":[],"coord":{"lat":"49.526768","lon":"3.857428"},"label":"gare de St-Erme (Saint-Erme-Outre-et-Ramecourt)","administrative_regions":[{"insee":"02676","name":"Saint-Erme-Outre-et-Ramecourt","level":8,"coord":{"lat":"49.515099","lon":"3.83985"},"label":"Saint-Erme-Outre-et-Ramecourt (2820)","id":"admin:1029505extern","zip_code":"02820"}],"timezone":"Europe/Paris","id":"stop_area:OCE:SA:87171751"},{"name":"gare de Coucy-les-Eppes","links":[],"coord":{"lat":"49.555626","lon":"3.775904"},"label":"gare de Coucy-les-Eppes (Coucy-lès-Eppes)","administrative_regions":[{"insee":"02218","name":"Coucy-lès-Eppes","level":8,"coord":{"lat":"49.552799","lon":"3.76906"},"label":"Coucy-lès-Eppes (2840)","id":"admin:415675extern","zip_code":"02840"}],"timezone":"Europe/Paris","id":"stop_area:OCE:SA:87171769"},{"name":"gare de Champagne-Ardenne","links":[],"coord":{"lat":"49.21163","lon":"3.988807"},"label":"gare de Champagne-Ardenne (Bezannes)","administrative_regions":[{"insee":"51058","name":"Bezannes","level":8,"coord":{"lat":"49.224083","lon":"3.988958"},"label":"Bezannes (51430)","id":"admin:108622extern","zip_code":"51430"}],"timezone":"Europe/Paris","id":"stop_area:OCE:SA:87171926"},{"name":"gare de Charleville-Mézières","links":[],"coord":{"lat":"49.767406","lon":"4.724882"},"label":"gare de Charleville-Mézières (Charleville-Mézières)","administrative_regions":[{"insee":"08105","name":"Charleville-Mézières","level":8,"coord":{"lat":"49.759937","lon":"4.718693"},"label":"Charleville-Mézières (8000)","id":"admin:153838extern","zip_code":"08000"}],"timezone":"Europe/Paris","id":"stop_area:OCE:SA:87172007"},{"name":"gare de Nouzonville","links":[],"coord":{"lat":"49.812179","lon":"4.742701"},"label":"gare de Nouzonville (Nouzonville)","administrative_regions":[{"insee":"08328","name":"Nouzonville","level":8,"coord":{"lat":"49.814438","lon":"4.744567"},"label":"Nouzonville (8700)","id":"admin:153895extern","zip_code":"08700"}],"timezone":"Europe/Paris","id":"stop_area:OCE:SA:87172023"},{"name":"gare de Joigny-sur-Meuse","links":[],"coord":{"lat":"49.833363","lon":"4.767009"},